{"Flight ID":"01e26d973f5a42842e7f1de7d123271315e5a45d1f53b667e8ed2deed452ea7a","Date":2024,"Scenario":"A001","Manually modified Phases":"No","Start_Align":101.7312,"Duration_Align":94.4636,"Start_Appr":196.1948,"Duration_Appr":21.2469,"Start_FA":217.4417,"Duration_FA":153.7797,"Time_Dock":371.2214,"Duration_Total":269.4902,"OutOfCone_Align":0.0,"OutOfCone_Appr":0,"OutOfCone_FA":0.0,"OutOfCone_Total":0.0,"AboveClosingVel_Align":0.0,"AboveClosingVel_Appr":20.6279,"AboveClosingVel_FA":94.7046,"AboveClosingVel_Total":115.3325,"Fuel_Align":3.894,"Fuel_Appr":0.595,"Fuel_FA":3.333,"Fuel_Total":7.822,"LatOffsetAtStart_Align":0.8321658489,"LatOffsetAtStart_Appr":0.5802663182,"LatOffsetAtStart_FA":0.4997129176,"LatOffsetAt_Dock":0.1012422837,"NoVisTime_Align":0.0,"NoVisTime_Appr":0,"NoVisTime_FA":0.0,"NoVisTime_Total":0.0,"THCPSD_Align":0.078532019,"THCErr_Align":5,"RHCPSD_Align":0.0,"RHCErr_Align":0,"THCPSD_Appr":0.0635482067,"THCErr_Appr":2,"RHCPSD_Appr":0.0,"RHCErr_Appr":0,"THCPSD_FA":0.0491415675,"THCErr_FA":13,"RHCPSD_FA":0.0,"RHCErr_FA":0,"THCPSD_Total":0.0662402464,"THCErr_Total":20,"RHCPSD_Total":0.0,"RHCErr_Total":0,"LatOffAvg_Align":0.5580269151,"LatOffAvg_Appr":0.5418958047,"LatOffAvg_FA":0.1982530013,"LatOffAvg_Total":0.3515644961,"RollRms_Align":0.6382441686,"RollRms_Appr":0.6466900264,"RollRms_FA":0.6660585489,"RollRms_Total":0.6549053956,"YawRms_Align":0.0249693494,"YawRms_Appr":0.0042847664,"YawRms_FA":0.046528581,"YawRms_Total":0.0381439111,"PitchRms_Align":1.2791245713,"PitchRms_Appr":1.1158935598,"PitchRms_FA":0.6165474668,"PitchRms_Total":0.9428762149,"DutyCycle_Align":0.1132897603,"DutyCycle_Appr":0.0776699029,"DutyCycle_FA":0.1903485255,"DutyCycle_Total":0.1536697248,"Aggressiveness_Align":0.4326221028,"Aggressiveness_Appr":0.2961636832,"Aggressiveness_FA":0.5772658483,"Aggressiveness_Total":0.5176625089,"Workload_Align":0.0490116543,"Workload_Appr":0.0230030045,"Workload_FA":0.109881703,"Workload_Total":0.0795490553,"THC_Align":25,"THC_Appr":3,"THC_FA":66,"THC_Total":94,"RHC_Align":0,"RHC_Appr":0,"RHC_FA":0,"RHC_Total":0,"CombJoy_Align":0,"CombJoy_Appr":0,"CombJoy_FA":0,"CombJoy_Total":0,"THCIndErr_Align":0,"THCIndErr_Appr":0,"THCIndErr_FA":0,"THCIndErr_Total":0,"RHCIndErr_Align":0,"RHCIndErr_Appr":0,"RHCIndErr_FA":0,"RHCIndErr_Total":0}
{"Flight ID":"09faecb44829553856dfe0128683ed1d1d5d960e1c34140aef4a942aedceb618","Date":2024,"Scenario":"A001","Manually modified Phases":"Yes","Start_Align":22.8038,"Duration_Align":5.5563,"Start_Appr":28.3601,"Duration_Appr":65.517,"Start_FA":93.8771,"Duration_FA":187.599,"Time_Dock":281.4761,"Duration_Total":258.6723,"OutOfCone_Align":0.0,"OutOfCone_Appr":0,"OutOfCone_FA":0.0,"OutOfCone_Total":0.0,"AboveClosingVel_Align":0.0,"AboveClosingVel_Appr":0.0,"AboveClosingVel_FA":96.1338,"AboveClosingVel_Total":96.1338,"Fuel_Align":0.292,"Fuel_Appr":4.07,"Fuel_FA":2.826,"Fuel_Total":7.188,"LatOffsetAtStart_Align":1.3286752801,"LatOffsetAtStart_Appr":1.2883633028,"LatOffsetAtStart_FA":0.0949210198,"LatOffsetAt_Dock":0.2090669749,"NoVisTime_Align":0.0,"NoVisTime_Appr":0,"NoVisTime_FA":0.0,"NoVisTime_Total":0.0,"THCPSD_Align":0.0309710648,"THCErr_Align":0,"RHCPSD_Align":0.0,"RHCErr_Align":0,"THCPSD_Appr":0.0669042015,"THCErr_Appr":3,"RHCPSD_Appr":0.0275203786,"RHCErr_Appr":0,"THCPSD_FA":0.0216277592,"THCErr_FA":1,"RHCPSD_FA":0.0039635488,"RHCErr_FA":1,"THCPSD_Total":0.0318705118,"THCErr_Total":4,"RHCPSD_Total":0.011539756,"RHCErr_Total":1,"LatOffAvg_Align":1.3101320806,"LatOffAvg_Appr":0.3733621571,"LatOffAvg_FA":0.0981063709,"LatOffAvg_Total":0.1940142673,"RollRms_Align":0.641,"RollRms_Appr":0.6689378558,"RollRms_FA":0.1445111441,"RollRms_Total":0.370673092,"YawRms_Align":0.012,"YawRms_Appr":0.1032730447,"YawRms_FA":0.1803165201,"YawRms_Total":0.162108006,"PitchRms_Align":1.3441960698,"PitchRms_Appr":0.629302676,"PitchRms_FA":0.1150772666,"PitchRms_Total":0.3859393546,"DutyCycle_Align":0.2222222222,"DutyCycle_Appr":0.1230283912,"DutyCycle_FA":0.0937155458,"DutyCycle_Total":0.1039168665,"Aggressiveness_Align":0.3565912406,"Aggressiveness_Appr":0.5546213365,"Aggressiveness_FA":0.4795000961,"Aggressiveness_Total":0.529357939,"Workload_Align":0.0792424979,"Workload_Appr":0.0682341707,"Workload_FA":0.0449366132,"Workload_Total":0.0550092183,"THC_Align":3,"THC_Appr":13,"THC_FA":32,"THC_Total":48,"RHC_Align":0,"RHC_Appr":4,"RHC_FA":7,"RHC_Total":11,"CombJoy_Align":0,"CombJoy_Appr":0,"CombJoy_FA":0,"CombJoy_Total":0,"THCIndErr_Align":0,"THCIndErr_Appr":0,"THCIndErr_FA":0,"THCIndErr_Total":0,"RHCIndErr_Align":0,"RHCIndErr_Appr":0,"RHCIndErr_FA":1,"RHCIndErr_Total":1}
{"Flight ID":"11b739e1a9cb83b38e46a5e60390c1155ee6967a6eb0c2d9125f768f38946d7b","Date":2024,"Scenario":"A001","Manually modified Phases":"Yes","Start_Align":71.5092,"Duration_Align":116.593,"Start_Appr":188.1022,"Duration_Appr":11.5518,"Start_FA":199.654,"Duration_FA":164.7269,"Time_Dock":364.3809,"Duration_Total":292.8717,"OutOfCone_Align":0.0,"OutOfCone_Appr":0,"OutOfCone_FA":0.0,"OutOfCone_Total":0.0,"AboveClosingVel_Align":7.4841,"AboveClosingVel_Appr":11.5518,"AboveClosingVel_FA":3.7268,"AboveClosingVel_Total":22.7627,"Fuel_Align":3.617,"Fuel_Appr":0.652,"Fuel_FA":2.097,"Fuel_Total":6.366,"LatOffsetAtStart_Align":1.0198137085,"LatOffsetAtStart_Appr":0.6532939614,"LatOffsetAtStart_FA":0.6081529413,"LatOffsetAt_Dock":0.1092016483,"NoVisTime_Align":0.0,"NoVisTime_Appr":0,"NoVisTime_FA":0.0,"NoVisTime_Total":0.0,"THCPSD_Align":0.0569760185,"THCErr_Align":7,"RHCPSD_Align":0.0,"RHCErr_Align":0,"THCPSD_Appr":0.0679562116,"THCErr_Appr":0,"RHCPSD_Appr":0.0,"RHCErr_Appr":0,"THCPSD_FA":0.0318972847,"THCErr_FA":11,"RHCPSD_FA":0.0,"RHCErr_FA":0,"THCPSD_Total":0.0513419053,"THCErr_Total":18,"RHCPSD_Total":0.0,"RHCErr_Total":0,"LatOffAvg_Align":0.6975455147,"LatOffAvg_Appr":0.6291971508,"LatOffAvg_FA":0.2862305532,"LatOffAvg_Total":0.4634530551,"RollRms_Align":0.6064720578,"RollRms_Appr":0.5497060416,"RollRms_FA":0.4636994339,"RollRms_Total":0.528455515,"YawRms_Align":0.1297718234,"YawRms_Appr":0.2662281514,"YawRms_FA":0.5456758516,"YawRms_Total":0.4207276322,"PitchRms_Align":1.2963992243,"PitchRms_Appr":1.1577804427,"PitchRms_FA":0.7433302395,"PitchRms_Total":1.0161653409,"DutyCycle_Align":0.0724381625,"DutyCycle_Appr":0.3571428571,"DutyCycle_FA":0.10375,"DutyCycle_Total":0.1012658228,"Aggressiveness_Align":0.3530123567,"Aggressiveness_Appr":0.487893632,"Aggressiveness_FA":0.4316226282,"Aggressiveness_Total":0.4469229168,"Workload_Align":0.0255715665,"Workload_Appr":0.1742477257,"Workload_FA":0.0447808477,"Workload_Total":0.0452580169,"THC_Align":21,"THC_Appr":10,"THC_FA":46,"THC_Total":77,"RHC_Align":0,"RHC_Appr":0,"RHC_FA":0,"RHC_Total":0,"CombJoy_Align":0,"CombJoy_Appr":0,"CombJoy_FA":0,"CombJoy_Total":0,"THCIndErr_Align":2,"THCIndErr_Appr":0,"THCIndErr_FA":5,"THCIndErr_Total":7,"RHCIndErr_Align":0,"RHCIndErr_Appr":0,"RHCIndErr_FA":0,"RHCIndErr_Total":0}
{"Flight ID":"17df65ac939652a8600941e1aace02e6760eb43aa9677a1c4c959ef453fd39b5","Date":2024,"Scenario":"A001","Manually modified Phases":"Yes","Start_Align":95.0185,"Duration_Align":254.4407,"Start_Appr":349.4592,"Duration_Appr":43.5347,"Start_FA":392.9939,"Duration_FA":208.6246,"Time_Dock":601.6185,"Duration_Total":506.6,"OutOfCone_Align":0.0,"OutOfCone_Appr":0,"OutOfCone_FA":0.0,"OutOfCone_Total":0.0,"AboveClosingVel_Align":0.0,"AboveClosingVel_Appr":0.0,"AboveClosingVel_FA":1.6417,"AboveClosingVel_Total":1.6417,"Fuel_Align":7.6,"Fuel_Appr":5.053,"Fuel_FA":8.012,"Fuel_Total":20.665,"LatOffsetAtStart_Align":0.874137289,"LatOffsetAtStart_Appr":0.607751594,"LatOffsetAtStart_FA":0.6200395149,"LatOffsetAt_Dock":0.1225765067,"NoVisTime_Align":0.0,"NoVisTime_Appr":0,"NoVisTime_FA":0.0,"NoVisTime_Total":0.0,"THCPSD_Align":0.0302153289,"THCErr_Align":6,"RHCPSD_Align":0.0007996355,"RHCErr_Align":3,"THCPSD_Appr":0.0053279742,"THCErr_Appr":0,"RHCPSD_Appr":0.063447899,"RHCErr_Appr":2,"THCPSD_FA":0.0689971012,"THCErr_FA":25,"RHCPSD_FA":0.0000391452,"RHCErr_FA":1,"THCPSD_Total":0.0475006899,"THCErr_Total":31,"RHCPSD_Total":0.0082349535,"RHCErr_Total":6,"LatOffAvg_Align":0.6828564488,"LatOffAvg_Appr":0.6304732129,"LatOffAvg_FA":0.1361341136,"LatOffAvg_Total":0.4531847349,"RollRms_Align":0.3896641737,"RollRms_Appr":0.3116710047,"RollRms_FA":0.8086386932,"RollRms_Total":0.5948894056,"YawRms_Align":0.7396469406,"YawRms_Appr":1.1338783442,"YawRms_FA":0.5949578693,"YawRms_Total":0.7288079686,"PitchRms_Align":0.6194694694,"PitchRms_Appr":0.9328976593,"PitchRms_FA":0.1771442386,"PitchRms_Total":0.5296508553,"DutyCycle_Align":0.0682926829,"DutyCycle_Appr":0.1753554502,"DutyCycle_FA":0.2160555005,"DutyCycle_Total":0.1383673469,"Aggressiveness_Align":0.3763668125,"Aggressiveness_Appr":0.4860119357,"Aggressiveness_FA":0.6234547157,"Aggressiveness_Total":0.5705992352,"Workload_Align":0.0257030994,"Workload_Appr":0.0852248418,"Workload_FA":0.1347008206,"Workload_Total":0.0789523023,"THC_Align":22,"THC_Appr":4,"THC_FA":97,"THC_Total":123,"RHC_Align":17,"RHC_Appr":16,"RHC_FA":1,"RHC_Total":34,"CombJoy_Align":0,"CombJoy_Appr":1,"CombJoy_FA":0,"CombJoy_Total":1,"THCIndErr_Align":0,"THCIndErr_Appr":0,"THCIndErr_FA":0,"THCIndErr_Total":0,"RHCIndErr_Align":1,"RHCIndErr_Appr":2,"RHCIndErr_FA":0,"RHCIndErr_Total":3}
{"Flight ID":"218fa090c52dd20a65b47be0084df41d40b4aded610b5bb059c83f9a18825390","Date":2024,"Scenario":"A001","Manually modified Phases":"Yes","Start_Align":133.2292,"Duration_Align":198.0806,"Start_Appr":331.3098,"Duration_Appr":20.1117,"Start_FA":351.4215,"Duration_FA":181.0598,"Time_Dock":532.4813,"Duration_Total":399.2521,"OutOfCone_Align":0.0,"OutOfCone_Appr":0,"OutOfCone_FA":0.0,"OutOfCone_Total":0.0,"AboveClosingVel_Align":0.0,"AboveClosingVel_Appr":0.0,"AboveClosingVel_FA":0.0,"AboveClosingVel_Total":0.0,"Fuel_Align":1.665,"Fuel_Appr":0.127,"Fuel_FA":1.989,"Fuel_Total":3.781,"LatOffsetAtStart_Align":0.6324634377,"LatOffsetAtStart_Appr":0.3990814453,"LatOffsetAtStart_FA":0.3760850968,"LatOffsetAt_Dock":0.1535740864,"NoVisTime_Align":0.0,"NoVisTime_Appr":0,"NoVisTime_FA":0.0,"NoVisTime_Total":0.0,"THCPSD_Align":0.0238460473,"THCErr_Align":4,"RHCPSD_Align":0.0,"RHCErr_Align":0,"THCPSD_Appr":0.0181985788,"THCErr_Appr":1,"RHCPSD_Appr":0.0,"RHCErr_Appr":0,"THCPSD_FA":0.0304325229,"THCErr_FA":13,"RHCPSD_FA":0.0,"RHCErr_FA":0,"THCPSD_Total":0.0261206377,"THCErr_Total":18,"RHCPSD_Total":0.0,"RHCErr_Total":0,"LatOffAvg_Align":0.729085763,"LatOffAvg_Appr":0.3716584144,"LatOffAvg_FA":0.2755344051,"LatOffAvg_Total":0.5053739194,"RollRms_Align":0.3487077081,"RollRms_Appr":0.5067297008,"RollRms_FA":1.0400778576,"RollRms_Total":0.7510034639,"YawRms_Align":0.1851065189,"YawRms_Appr":0.4291613735,"YawRms_FA":1.076030355,"YawRms_Total":0.742666103,"PitchRms_Align":1.2244471566,"PitchRms_Appr":0.8488579593,"PitchRms_FA":0.3947880427,"PitchRms_Total":0.9223281214,"DutyCycle_Align":0.0636079249,"DutyCycle_Appr":0.0515463918,"DutyCycle_FA":0.1242873432,"DutyCycle_Total":0.0905328505,"Aggressiveness_Align":0.3089664214,"Aggressiveness_Appr":0.1523380087,"Aggressiveness_FA":0.4723160637,"Aggressiveness_Total":0.389465596,"Workload_Align":0.0196527129,"Workload_Appr":0.0078524747,"Workload_FA":0.0587029087,"Workload_Total":0.0352594306,"THC_Align":26,"THC_Appr":2,"THC_FA":52,"THC_Total":80,"RHC_Align":0,"RHC_Appr":0,"RHC_FA":0,"RHC_Total":0,"CombJoy_Align":0,"CombJoy_Appr":0,"CombJoy_FA":0,"CombJoy_Total":0,"THCIndErr_Align":0,"THCIndErr_Appr":0,"THCIndErr_FA":0,"THCIndErr_Total":0,"RHCIndErr_Align":0,"RHCIndErr_Appr":0,"RHCIndErr_FA":0,"RHCIndErr_Total":0}
{"Flight ID":"3e02b1864ea778ac8c42d769d898f4bc15b06183efffeda88bb27cc7fcf339b1","Date":2024,"Scenario":"A001","Manually modified Phases":"No","Start_Align":68.2629,"Duration_Align":74.7292,"Start_Appr":142.9921,"Duration_Appr":46.3594,"Start_FA":189.3515,"Duration_FA":522.3434,"Time_Dock":711.6949,"Duration_Total":643.432,"OutOfCone_Align":0.0,"OutOfCone_Appr":0,"OutOfCone_FA":0.0,"OutOfCone_Total":0.0,"AboveClosingVel_Align":0.0,"AboveClosingVel_Appr":5.6291,"AboveClosingVel_FA":81.7888,"AboveClosingVel_Total":87.4179,"Fuel_Align":0.904,"Fuel_Appr":0.506,"Fuel_FA":10.885,"Fuel_Total":12.295,"LatOffsetAtStart_Align":1.0409226676,"LatOffsetAtStart_Appr":0.2207192787,"LatOffsetAtStart_FA":0.1056030303,"LatOffsetAt_Dock":0.0386264158,"NoVisTime_Align":0.0,"NoVisTime_Appr":0,"NoVisTime_FA":0.0,"NoVisTime_Total":0.0,"THCPSD_Align":0.031416865,"THCErr_Align":1,"RHCPSD_Align":0.0,"RHCErr_Align":0,"THCPSD_Appr":0.0358473911,"THCErr_Appr":1,"RHCPSD_Appr":0.0,"RHCErr_Appr":0,"THCPSD_FA":0.0236005508,"THCErr_FA":12,"RHCPSD_FA":0.0083619527,"RHCErr_FA":6,"THCPSD_Total":0.025536413,"THCErr_Total":14,"RHCPSD_Total":0.0056576749,"RHCErr_Total":6,"LatOffAvg_Align":0.5703965737,"LatOffAvg_Appr":0.0896839991,"LatOffAvg_FA":0.1264113122,"LatOffAvg_Total":0.1753481193,"RollRms_Align":0.6179420992,"RollRms_Appr":0.5684406094,"RollRms_FA":0.3501911424,"RollRms_Total":0.4087022018,"YawRms_Align":0.0814956268,"YawRms_Appr":0.1942368186,"YawRms_FA":0.5711661827,"YawRms_Total":0.5182067306,"PitchRms_Align":1.313275856,"PitchRms_Appr":1.0384915652,"PitchRms_FA":0.3836858146,"PitchRms_Total":0.6299435251,"DutyCycle_Align":0.1267217631,"DutyCycle_Appr":0.0896860987,"DutyCycle_FA":0.125984252,"DutyCycle_Total":0.1234804862,"Aggressiveness_Align":0.4552395311,"Aggressiveness_Appr":0.341496942,"Aggressiveness_FA":0.513056031,"Aggressiveness_Total":0.5193323253,"Workload_Align":0.057688756,"Workload_Appr":0.0306275284,"Workload_FA":0.0646369803,"Workload_Total":0.0641274081,"THC_Align":22,"THC_Appr":10,"THC_FA":103,"THC_Total":135,"RHC_Align":0,"RHC_Appr":0,"RHC_FA":26,"RHC_Total":26,"CombJoy_Align":0,"CombJoy_Appr":0,"CombJoy_FA":0,"CombJoy_Total":0,"THCIndErr_Align":0,"THCIndErr_Appr":0,"THCIndErr_FA":0,"THCIndErr_Total":0,"RHCIndErr_Align":0,"RHCIndErr_Appr":0,"RHCIndErr_FA":3,"RHCIndErr_Total":3}
{"Flight ID":"42f959277d9e0d65b75c919b6bdb4550c8ce0c59e21be95c041dbf4f8b1fdd0d","Date":2024,"Scenario":"A001","Manually modified Phases":"Yes","Start_Align":90.6702,"Duration_Align":74.183,"Start_Appr":164.8532,"Duration_Appr":61.1234,"Start_FA":225.9766,"Duration_FA":151.0347,"Time_Dock":377.0113,"Duration_Total":286.3411,"OutOfCone_Align":0.0,"OutOfCone_Appr":0,"OutOfCone_FA":0.0,"OutOfCone_Total":0.0,"AboveClosingVel_Align":0.0,"AboveClosingVel_Appr":0.0,"AboveClosingVel_FA":31.4674,"AboveClosingVel_Total":31.4674,"Fuel_Align":2.855,"Fuel_Appr":0.47,"Fuel_FA":2.619,"Fuel_Total":5.944,"LatOffsetAtStart_Align":1.2997738265,"LatOffsetAtStart_Appr":0.5831243435,"LatOffsetAtStart_FA":0.2708228203,"LatOffsetAt_Dock":0.0798811617,"NoVisTime_Align":0.0,"NoVisTime_Appr":0,"NoVisTime_FA":0.0,"NoVisTime_Total":0.0,"THCPSD_Align":0.0667238192,"THCErr_Align":3,"RHCPSD_Align":0.0,"RHCErr_Align":0,"THCPSD_Appr":0.0075374715,"THCErr_Appr":6,"RHCPSD_Appr":0.0,"RHCErr_Appr":0,"THCPSD_FA":0.037690541,"THCErr_FA":19,"RHCPSD_FA":0.0,"RHCErr_FA":0,"THCPSD_Total":0.0431369371,"THCErr_Total":28,"RHCPSD_Total":0.0,"RHCErr_Total":0,"LatOffAvg_Align":0.8099325989,"LatOffAvg_Appr":0.3629170979,"LatOffAvg_FA":0.2813743215,"LatOffAvg_Total":0.4355460679,"RollRms_Align":0.4659825791,"RollRms_Appr":0.3973294183,"RollRms_FA":0.2286647431,"RollRms_Total":0.342779024,"YawRms_Align":0.6279707688,"YawRms_Appr":0.6856817453,"YawRms_FA":0.76430279,"YawRms_Total":0.7146279779,"PitchRms_Align":0.5858538856,"PitchRms_Appr":1.0052153338,"PitchRms_FA":1.7384002628,"PitchRms_Total":1.3781044202,"DutyCycle_Align":0.1292134831,"DutyCycle_Appr":0.0850340136,"DutyCycle_FA":0.1680440771,"DutyCycle_Total":0.1409883721,"Aggressiveness_Align":0.4135352044,"Aggressiveness_Appr":0.4007599534,"Aggressiveness_FA":0.55371532,"Aggressiveness_Total":0.5043981421,"Workload_Align":0.0534343242,"Workload_Appr":0.0340782273,"Workload_FA":0.0930485799,"Workload_Total":0.0711142729,"THC_Align":23,"THC_Appr":15,"THC_FA":67,"THC_Total":105,"RHC_Align":0,"RHC_Appr":0,"RHC_FA":0,"RHC_Total":0,"CombJoy_Align":0,"CombJoy_Appr":0,"CombJoy_FA":0,"CombJoy_Total":0,"THCIndErr_Align":0,"THCIndErr_Appr":4,"THCIndErr_FA":3,"THCIndErr_Total":7,"RHCIndErr_Align":0,"RHCIndErr_Appr":0,"RHCIndErr_FA":0,"RHCIndErr_Total":0}
{"Flight ID":"452ae00a531cd4bc0b721a7b24b05bb1dcd49e4e14c0d8f4574cc1383a66dacf","Date":2024,"Scenario":"A001","Manually modified Phases":"Yes","Start_Align":191.5022,"Duration_Align":184.2369,"Start_Appr":375.7391,"Duration_Appr":14.5016,"Start_FA":390.2407,"Duration_FA":165.0373,"Time_Dock":555.278,"Duration_Total":363.7758,"OutOfCone_Align":0.0,"OutOfCone_Appr":0,"OutOfCone_FA":0.0,"OutOfCone_Total":0.0,"AboveClosingVel_Align":0.0,"AboveClosingVel_Appr":0.0,"AboveClosingVel_FA":0.0,"AboveClosingVel_Total":0.0,"Fuel_Align":5.586,"Fuel_Appr":0.437,"Fuel_FA":4.939,"Fuel_Total":10.962,"LatOffsetAtStart_Align":0.2938656155,"LatOffsetAtStart_Appr":0.1194361754,"LatOffsetAtStart_FA":0.1079351657,"LatOffsetAt_Dock":0.0070710678,"NoVisTime_Align":0.0,"NoVisTime_Appr":0,"NoVisTime_FA":0.0,"NoVisTime_Total":0.0,"THCPSD_Align":0.0463917874,"THCErr_Align":4,"RHCPSD_Align":0.0047107134,"RHCErr_Align":0,"THCPSD_Appr":0.0400497658,"THCErr_Appr":0,"RHCPSD_Appr":0.0,"RHCErr_Appr":0,"THCPSD_FA":0.0609657257,"THCErr_FA":14,"RHCPSD_FA":0.0087140785,"RHCErr_FA":0,"THCPSD_Total":0.0535297919,"THCErr_Total":18,"RHCPSD_Total":0.0066053088,"RHCErr_Total":0,"LatOffAvg_Align":0.8193699475,"LatOffAvg_Appr":0.1330947962,"LatOffAvg_FA":0.074003003,"LatOffAvg_Total":0.4536873049,"RollRms_Align":1.2400567577,"RollRms_Appr":1.8026005777,"RollRms_FA":1.9173206086,"RollRms_Total":1.6051872554,"YawRms_Align":0.2390435468,"YawRms_Appr":0.0908259717,"YawRms_FA":0.0581855545,"YawRms_Total":0.1754779479,"PitchRms_Align":0.9773689853,"PitchRms_Appr":0.1520451061,"PitchRms_FA":0.6821411877,"PitchRms_Total":0.8341309747,"DutyCycle_Align":0.0773542601,"DutyCycle_Appr":0.0857142857,"DutyCycle_FA":0.15125,"DutyCycle_Total":0.1112372304,"Aggressiveness_Align":0.4001155378,"Aggressiveness_Appr":0.3301166377,"Aggressiveness_FA":0.4356615868,"Aggressiveness_Total":0.4618952512,"Workload_Align":0.0309506414,"Workload_Appr":0.0282957118,"Workload_FA":0.065893815,"Workload_Total":0.0513799485,"THC_Align":26,"THC_Appr":3,"THC_FA":53,"THC_Total":82,"RHC_Align":3,"RHC_Appr":0,"RHC_FA":1,"RHC_Total":4,"CombJoy_Align":1,"CombJoy_Appr":0,"CombJoy_FA":2,"CombJoy_Total":3,"THCIndErr_Align":0,"THCIndErr_Appr":0,"THCIndErr_FA":0,"THCIndErr_Total":0,"RHCIndErr_Align":0,"RHCIndErr_Appr":0,"RHCIndErr_FA":0,"RHCIndErr_Total":0}
{"Flight ID":"4da48bb6f3c2da7d82d417e76453d7ef9b07373647a58edfeed7abd59f243159","Date":2024,"Scenario":"A001","Manually modified Phases":"Yes","Start_Align":156.05,"Duration_Align":219.1117,"Start_Appr":375.1617,"Duration_Appr":12.4912,"Start_FA":387.6529,"Duration_FA":272.5923,"Time_Dock":660.2452,"Duration_Total":504.1952,"OutOfCone_Align":0.0,"OutOfCone_Appr":0,"OutOfCone_FA":0.0,"OutOfCone_Total":0.0,"AboveClosingVel_Align":0.0,"AboveClosingVel_Appr":0.0,"AboveClosingVel_FA":0.0,"AboveClosingVel_Total":0.0,"Fuel_Align":7.737,"Fuel_Appr":0.027,"Fuel_FA":5.227,"Fuel_Total":12.991,"LatOffsetAtStart_Align":0.4857869904,"LatOffsetAtStart_Appr":0.5377917813,"LatOffsetAtStart_FA":0.5236888389,"LatOffsetAt_Dock":0.280800641,"NoVisTime_Align":0.0,"NoVisTime_Appr":0,"NoVisTime_FA":0.0,"NoVisTime_Total":0.0,"THCPSD_Align":0.050132709,"THCErr_Align":18,"RHCPSD_Align":0.0002506671,"RHCErr_Align":0,"THCPSD_Appr":0.0055168946,"THCErr_Appr":0,"RHCPSD_Appr":0.0,"RHCErr_Appr":0,"THCPSD_FA":0.0425837081,"THCErr_FA":25,"RHCPSD_FA":0.0,"RHCErr_FA":0,"THCPSD_Total":0.0459588339,"THCErr_Total":43,"RHCPSD_Total":0.0000976266,"RHCErr_Total":0,"LatOffAvg_Align":0.5975447007,"LatOffAvg_Appr":0.5305998786,"LatOffAvg_FA":0.6009717885,"LatOffAvg_Total":0.597725963,"RollRms_Align":0.577687054,"RollRms_Appr":0.3246201816,"RollRms_FA":0.6119769883,"RollRms_Total":0.5916521081,"YawRms_Align":0.294484515,"YawRms_Appr":0.7465661061,"YawRms_FA":1.8012497657,"YawRms_Total":1.3428194466,"PitchRms_Align":1.1081998426,"PitchRms_Appr":1.6772688084,"PitchRms_FA":2.639250992,"PitchRms_Total":2.0892586337,"DutyCycle_Align":0.1521126761,"DutyCycle_Appr":0.0655737705,"DutyCycle_FA":0.1945495836,"DutyCycle_Total":0.1728647323,"Aggressiveness_Align":0.5410335274,"Aggressiveness_Appr":0.1781833726,"Aggressiveness_FA":0.5646020935,"Aggressiveness_Total":0.5690610356,"Workload_Align":0.0822980577,"Workload_Appr":0.0116841556,"Workload_FA":0.1098431022,"Workload_Total":0.0983705836,"THC_Align":69,"THC_Appr":2,"THC_FA":130,"THC_Total":201,"RHC_Align":8,"RHC_Appr":0,"RHC_FA":0,"RHC_Total":8,"CombJoy_Align":0,"CombJoy_Appr":0,"CombJoy_FA":0,"CombJoy_Total":0,"THCIndErr_Align":2,"THCIndErr_Appr":0,"THCIndErr_FA":9,"THCIndErr_Total":11,"RHCIndErr_Align":0,"RHCIndErr_Appr":0,"RHCIndErr_FA":0,"RHCIndErr_Total":0}
{"Flight ID":"59deb85686ee7a1699a8a702f219bfc2732f48a08901d2b6ee8c37e57cd66a97","Date":2024,"Scenario":"A001","Manually modified Phases":"Yes","Start_Align":115.679,"Duration_Align":85.621,"Start_Appr":201.3,"Duration_Appr":45.146,"Start_FA":246.446,"Duration_FA":149.6771,"Time_Dock":396.1231,"Duration_Total":280.4441,"OutOfCone_Align":0.0,"OutOfCone_Appr":0,"OutOfCone_FA":0.2123,"OutOfCone_Total":0.2123,"AboveClosingVel_Align":0.0,"AboveClosingVel_Appr":0.0,"AboveClosingVel_FA":149.2634,"AboveClosingVel_Total":149.2634,"Fuel_Align":1.883,"Fuel_Appr":1.853,"Fuel_FA":1.787,"Fuel_Total":5.523,"LatOffsetAtStart_Align":0.7441861326,"LatOffsetAtStart_Appr":0.6648195244,"LatOffsetAtStart_FA":0.0171172428,"LatOffsetAt_Dock":0.9321936494,"NoVisTime_Align":0.0,"NoVisTime_Appr":0,"NoVisTime_FA":0.2123,"NoVisTime_Total":0.2123,"THCPSD_Align":0.0329313104,"THCErr_Align":6,"RHCPSD_Align":0.0001143426,"RHCErr_Align":0,"THCPSD_Appr":0.0518837288,"THCErr_Appr":0,"RHCPSD_Appr":0.0019671491,"RHCErr_Appr":0,"THCPSD_FA":0.0290903762,"THCErr_FA":10,"RHCPSD_FA":0.0,"RHCErr_FA":0,"THCPSD_Total":0.036725116,"THCErr_Total":16,"RHCPSD_Total":0.0042751458,"RHCErr_Total":0,"LatOffAvg_Align":0.5990877457,"LatOffAvg_Appr":0.2199013258,"LatOffAvg_FA":0.0616906446,"LatOffAvg_Total":0.2521254513,"RollRms_Align":0.6279892962,"RollRms_Appr":0.5758816023,"RollRms_FA":0.3640277572,"RollRms_Total":0.4950267943,"YawRms_Align":0.0530777563,"YawRms_Appr":0.091091794,"YawRms_FA":0.2763269837,"YawRms_Total":0.2068538556,"PitchRms_Align":1.3268090636,"PitchRms_Appr":0.1994986703,"PitchRms_FA":0.7903702283,"PitchRms_Total":0.9372454497,"DutyCycle_Align":0.1622911695,"DutyCycle_Appr":0.2126696833,"DutyCycle_FA":0.1707988981,"DutyCycle_Total":0.1742313324,"Aggressiveness_Align":0.5527012402,"Aggressiveness_Appr":0.6118544612,"Aggressiveness_FA":0.5171499407,"Aggressiveness_Total":0.5635267167,"Workload_Align":0.0896985306,"Workload_Appr":0.1301228945,"Workload_FA":0.08832864,"Workload_Total":0.0981840107,"THC_Align":29,"THC_Appr":18,"THC_FA":61,"THC_Total":108,"RHC_Align":2,"RHC_Appr":1,"RHC_FA":0,"RHC_Total":3,"CombJoy_Align":1,"CombJoy_Appr":1,"CombJoy_FA":0,"CombJoy_Total":2,"THCIndErr_Align":0,"THCIndErr_Appr":0,"THCIndErr_FA":0,"THCIndErr_Total":0,"RHCIndErr_Align":0,"RHCIndErr_Appr":0,"RHCIndErr_FA":0,"RHCIndErr_Total":0}
{"Flight ID":"60dd8ff10f32a59f9a92d617426cee0ae1049e94acb4dfdc0b684ac17d8bdabe","Date":2024,"Scenario":"A001","Manually modified Phases":"Yes","Start_Align":201.5875,"Duration_Align":177.6301,"Start_Appr":379.2176,"Duration_Appr":38.2334,"Start_FA":417.451,"Duration_FA":450.4361,"Time_Dock":867.8871,"Duration_Total":666.2996,"OutOfCone_Align":0.0,"OutOfCone_Appr":0,"OutOfCone_FA":0.0,"OutOfCone_Total":0.0,"AboveClosingVel_Align":0.0,"AboveClosingVel_Appr":0.0,"AboveClosingVel_FA":24.324,"AboveClosingVel_Total":24.324,"Fuel_Align":14.827,"Fuel_Appr":2.247,"Fuel_FA":32.478,"Fuel_Total":49.552,"LatOffsetAtStart_Align":0.276,"LatOffsetAtStart_Appr":1.1640829008,"LatOffsetAtStart_FA":0.5196200535,"LatOffsetAt_Dock":0.069892775,"NoVisTime_Align":0.0,"NoVisTime_Appr":0,"NoVisTime_FA":3.6826,"NoVisTime_Total":3.6826,"THCPSD_Align":0.0998507809,"THCErr_Align":15,"RHCPSD_Align":0.0,"RHCErr_Align":0,"THCPSD_Appr":0.0352149423,"THCErr_Appr":1,"RHCPSD_Appr":0.0,"RHCErr_Appr":0,"THCPSD_FA":0.066030367,"THCErr_FA":37,"RHCPSD_FA":0.0079970474,"RHCErr_FA":1,"THCPSD_Total":0.0749679193,"THCErr_Total":53,"RHCPSD_Total":0.0055031005,"RHCErr_Total":1,"LatOffAvg_Align":0.7222993989,"LatOffAvg_Appr":1.2605614084,"LatOffAvg_FA":0.624318985,"LatOffAvg_Total":0.686631508,"RollRms_Align":0.4624623127,"RollRms_Appr":0.1305727142,"RollRms_FA":0.7885281413,"RollRms_Total":0.691928963,"YawRms_Align":0.4926661507,"YawRms_Appr":1.0848827927,"YawRms_FA":1.4960220408,"YawRms_Total":1.2831777048,"PitchRms_Align":1.661359436,"PitchRms_Appr":2.1647160447,"PitchRms_FA":1.6654818888,"PitchRms_Total":1.6967834438,"DutyCycle_Align":0.1395348837,"DutyCycle_Appr":0.0489130435,"DutyCycle_FA":0.1476909008,"DutyCycle_Total":0.1395852677,"Aggressiveness_Align":0.4470438982,"Aggressiveness_Appr":0.2517932272,"Aggressiveness_FA":0.5368968251,"Aggressiveness_Total":0.5151541295,"Workload_Align":0.0623782184,"Workload_Appr":0.0123159731,"Workload_FA":0.0792947757,"Workload_Total":0.0719079271,"THC_Align":55,"THC_Appr":5,"THC_FA":127,"THC_Total":187,"RHC_Align":0,"RHC_Appr":0,"RHC_FA":15,"RHC_Total":15,"CombJoy_Align":0,"CombJoy_Appr":0,"CombJoy_FA":0,"CombJoy_Total":0,"THCIndErr_Align":0,"THCIndErr_Appr":0,"THCIndErr_FA":0,"THCIndErr_Total":0,"RHCIndErr_Align":0,"RHCIndErr_Appr":0,"RHCIndErr_FA":0,"RHCIndErr_Total":0}
{"Flight ID":"7478e35508b65228f8eb70b20d1a5b87f13b3dfdb62acde381d08448b96a64ef","Date":2024,"Scenario":"A001","Manually modified Phases":"Yes","Start_Align":210.5379,"Duration_Align":95.4942,"Start_Appr":306.0321,"Duration_Appr":30.2423,"Start_FA":336.2744,"Duration_FA":164.5649,"Time_Dock":500.8393,"Duration_Total":290.3014,"OutOfCone_Align":0.0,"OutOfCone_Appr":0,"OutOfCone_FA":0.0,"OutOfCone_Total":0.0,"AboveClosingVel_Align":0.0,"AboveClosingVel_Appr":0.0,"AboveClosingVel_FA":0.0,"AboveClosingVel_Total":0.0,"Fuel_Align":5.384,"Fuel_Appr":0.685,"Fuel_FA":1.913,"Fuel_Total":7.982,"LatOffsetAtStart_Align":0.2864000698,"LatOffsetAtStart_Appr":0.1484890568,"LatOffsetAtStart_FA":0.1545380212,"LatOffsetAt_Dock":0.0585491247,"NoVisTime_Align":0.0,"NoVisTime_Appr":0,"NoVisTime_FA":0.0,"NoVisTime_Total":0.0,"THCPSD_Align":0.0528640159,"THCErr_Align":0,"RHCPSD_Align":0.0153849688,"RHCErr_Align":8,"THCPSD_Appr":0.0043603223,"THCErr_Appr":0,"RHCPSD_Appr":0.0287830328,"RHCErr_Appr":1,"THCPSD_FA":0.0343003866,"THCErr_FA":14,"RHCPSD_FA":0.0,"RHCErr_FA":0,"THCPSD_Total":0.0368098318,"THCErr_Total":14,"RHCPSD_Total":0.0145091493,"RHCErr_Total":9,"LatOffAvg_Align":0.1941806331,"LatOffAvg_Appr":0.1705228328,"LatOffAvg_FA":0.09245093,"LatOffAvg_Total":0.1341302188,"RollRms_Align":0.9471549003,"RollRms_Appr":1.4329014535,"RollRms_FA":0.2638921114,"RollRms_Total":0.7407352644,"YawRms_Align":0.0104652545,"YawRms_Appr":0.083752203,"YawRms_FA":0.4250341665,"YawRms_Total":0.3209998859,"PitchRms_Align":1.1898249255,"PitchRms_Appr":0.1582694512,"PitchRms_FA":0.5682282722,"PitchRms_Total":0.8078338984,"DutyCycle_Align":0.2327586207,"DutyCycle_Appr":0.1369863014,"DutyCycle_FA":0.1532663317,"DutyCycle_Total":0.1778093883,"Aggressiveness_Align":0.698105123,"Aggressiveness_Appr":0.373476063,"Aggressiveness_FA":0.4445091346,"Aggressiveness_Total":0.6310836398,"Workload_Align":0.1624899855,"Workload_Appr":0.0511611045,"Workload_FA":0.0681282845,"Workload_Total":0.112212596,"THC_Align":34,"THC_Appr":2,"THC_FA":61,"THC_Total":97,"RHC_Align":16,"RHC_Appr":5,"RHC_FA":0,"RHC_Total":21,"CombJoy_Align":0,"CombJoy_Appr":0,"CombJoy_FA":0,"CombJoy_Total":0,"THCIndErr_Align":0,"THCIndErr_Appr":0,"THCIndErr_FA":0,"THCIndErr_Total":0,"RHCIndErr_Align":5,"RHCIndErr_Appr":0,"RHCIndErr_FA":0,"RHCIndErr_Total":5}
{"Flight ID":"771a92eec79fefdddca0b8bf65a4320432ba808c8db621f65ec08ef7938bed8d","Date":2024,"Scenario":"A001","Manually modified Phases":"Yes","Start_Align":123.6591,"Duration_Align":127.6124,"Start_Appr":251.2715,"Duration_Appr":29.1826,"Start_FA":280.4541,"Duration_FA":160.2317,"Time_Dock":440.6858,"Duration_Total":317.0267,"OutOfCone_Align":0.0,"OutOfCone_Appr":0,"OutOfCone_FA":0.0,"OutOfCone_Total":0.0,"AboveClosingVel_Align":0.0,"AboveClosingVel_Appr":0.0,"AboveClosingVel_FA":59.1537,"AboveClosingVel_Total":59.1537,"Fuel_Align":0.87,"Fuel_Appr":0.304,"Fuel_FA":1.264,"Fuel_Total":2.438,"LatOffsetAtStart_Align":0.6938602165,"LatOffsetAtStart_Appr":0.6415270844,"LatOffsetAtStart_FA":0.4366806614,"LatOffsetAt_Dock":0.0743303437,"NoVisTime_Align":0.0,"NoVisTime_Appr":0,"NoVisTime_FA":0.0,"NoVisTime_Total":0.0,"THCPSD_Align":0.0165468369,"THCErr_Align":2,"RHCPSD_Align":0.0,"RHCErr_Align":0,"THCPSD_Appr":0.0316320378,"THCErr_Appr":0,"RHCPSD_Appr":0.0,"RHCErr_Appr":0,"THCPSD_FA":0.0203012223,"THCErr_FA":7,"RHCPSD_FA":0.0,"RHCErr_FA":0,"THCPSD_Total":0.01949817,"THCErr_Total":9,"RHCPSD_Total":0.0,"RHCErr_Total":0,"LatOffAvg_Align":0.6092576217,"LatOffAvg_Appr":0.5951164149,"LatOffAvg_FA":0.2143360658,"LatOffAvg_Total":0.4075188233,"RollRms_Align":0.6259982472,"RollRms_Appr":0.6019093739,"RollRms_FA":0.5353132883,"RollRms_Total":0.5793811931,"YawRms_Align":0.0692569692,"YawRms_Appr":0.1403499901,"YawRms_FA":0.3850636595,"YawRms_Total":0.2810606985,"PitchRms_Align":1.3110136813,"PitchRms_Appr":1.0628318338,"PitchRms_FA":0.5392350474,"PitchRms_Total":0.969224601,"DutyCycle_Align":0.0539215686,"DutyCycle_Appr":0.0774647887,"DutyCycle_FA":0.0849420849,"DutyCycle_Total":0.0725016329,"Aggressiveness_Align":0.301371661,"Aggressiveness_Appr":0.3211675387,"Aggressiveness_FA":0.3241635731,"Aggressiveness_Total":0.3469095572,"Workload_Align":0.0162504327,"Workload_Appr":0.0248791755,"Workload_FA":0.0275351298,"Workload_Total":0.0251515094,"THC_Align":15,"THC_Appr":6,"THC_FA":32,"THC_Total":53,"RHC_Align":0,"RHC_Appr":0,"RHC_FA":0,"RHC_Total":0,"CombJoy_Align":0,"CombJoy_Appr":0,"CombJoy_FA":0,"CombJoy_Total":0,"THCIndErr_Align":0,"THCIndErr_Appr":0,"THCIndErr_FA":0,"THCIndErr_Total":0,"RHCIndErr_Align":0,"RHCIndErr_Appr":0,"RHCIndErr_FA":0,"RHCIndErr_Total":0}
{"Flight ID":"7e232fa3019fef17074b52ceee5b42f275ac2caf4994a50a775ce6690daad7bf","Date":2024,"Scenario":"A001","Manually modified Phases":"Yes","Start_Align":91.4804,"Duration_Align":3.0369,"Start_Appr":94.5173,"Duration_Appr":66.6243,"Start_FA":161.1416,"Duration_FA":157.9456,"Time_Dock":319.0872,"Duration_Total":227.6068,"OutOfCone_Align":0.0,"OutOfCone_Appr":0,"OutOfCone_FA":0.0,"OutOfCone_Total":0.0,"AboveClosingVel_Align":0.0,"AboveClosingVel_Appr":1.8251,"AboveClosingVel_FA":108.7128,"AboveClosingVel_Total":110.5379,"Fuel_Align":0.091,"Fuel_Appr":2.607,"Fuel_FA":7.897,"Fuel_Total":10.595,"LatOffsetAtStart_Align":0.8965645543,"LatOffsetAtStart_Appr":0.877624635,"LatOffsetAtStart_FA":0.4264692251,"LatOffsetAt_Dock":0.1494857853,"NoVisTime_Align":0.0,"NoVisTime_Appr":0,"NoVisTime_FA":0.0,"NoVisTime_Total":0.0,"THCPSD_Align":0.0738920635,"THCErr_Align":3,"RHCPSD_Align":0.0,"RHCErr_Align":0,"THCPSD_Appr":0.0712387662,"THCErr_Appr":4,"RHCPSD_Appr":0.0,"RHCErr_Appr":0,"THCPSD_FA":0.0790437974,"THCErr_FA":21,"RHCPSD_FA":0.0,"RHCErr_FA":0,"THCPSD_Total":0.0806196025,"THCErr_Total":28,"RHCPSD_Total":0.0,"RHCErr_Total":0,"LatOffAvg_Align":0.8875758608,"LatOffAvg_Appr":0.5332934838,"LatOffAvg_FA":0.2604709815,"LatOffAvg_Total":0.3489323343,"RollRms_Align":0.642,"RollRms_Appr":0.6496976477,"RollRms_FA":0.4089686687,"RollRms_Total":0.4953063353,"YawRms_Align":0.012,"YawRms_Appr":0.0753186947,"YawRms_FA":0.8101729553,"YawRms_Total":0.6757399057,"PitchRms_Align":1.3497334058,"PitchRms_Appr":1.1459987959,"PitchRms_FA":0.6263013643,"PitchRms_Total":0.8256523121,"DutyCycle_Align":0.5333333333,"DutyCycle_Appr":0.1519756839,"DutyCycle_FA":0.1647361647,"DutyCycle_Total":0.1659232828,"Aggressiveness_Align":0.5826839506,"Aggressiveness_Appr":0.5563913848,"Aggressiveness_FA":0.5779496531,"Aggressiveness_Total":0.5792239616,"Workload_Align":0.3107647737,"Workload_Appr":0.0845579612,"Workload_FA":0.0952092093,"Workload_Total":0.0961067412,"THC_Align":4,"THC_Appr":25,"THC_FA":64,"THC_Total":93,"RHC_Align":0,"RHC_Appr":0,"RHC_FA":0,"RHC_Total":0,"CombJoy_Align":0,"CombJoy_Appr":0,"CombJoy_FA":0,"CombJoy_Total":0,"THCIndErr_Align":0,"THCIndErr_Appr":0,"THCIndErr_FA":0,"THCIndErr_Total":0,"RHCIndErr_Align":0,"RHCIndErr_Appr":0,"RHCIndErr_FA":0,"RHCIndErr_Total":0}
{"Flight ID":"8367005f40b1f2e7736b2b8ee012a2e8fea265ffa007deddf61237bd63a3d16e","Date":2024,"Scenario":"A001","Manually modified Phases":"No","Start_Align":261.4461,"Duration_Align":156.4689,"Start_Appr":417.915,"Duration_Appr":10.4848,"Start_FA":428.3998,"Duration_FA":421.511,"Time_Dock":849.9108,"Duration_Total":588.4647,"OutOfCone_Align":0.0,"OutOfCone_Appr":0,"OutOfCone_FA":0.0,"OutOfCone_Total":0.0,"AboveClosingVel_Align":0.0,"AboveClosingVel_Appr":4.7236,"AboveClosingVel_FA":0.0,"AboveClosingVel_Total":4.7236,"Fuel_Align":3.585,"Fuel_Appr":0.113,"Fuel_FA":9.197,"Fuel_Total":12.895,"LatOffsetAtStart_Align":0.723,"LatOffsetAtStart_Appr":0.5054463374,"LatOffsetAtStart_FA":0.5611452575,"LatOffsetAt_Dock":0.0926984358,"NoVisTime_Align":0.0,"NoVisTime_Appr":0,"NoVisTime_FA":0.0,"NoVisTime_Total":0.0,"THCPSD_Align":0.0494883573,"THCErr_Align":1,"RHCPSD_Align":0.0,"RHCErr_Align":0,"THCPSD_Appr":0.0398959672,"THCErr_Appr":0,"RHCPSD_Appr":0.0,"RHCErr_Appr":0,"THCPSD_FA":0.0317704051,"THCErr_FA":22,"RHCPSD_FA":0.0086480174,"RHCErr_FA":4,"THCPSD_Total":0.0378046047,"THCErr_Total":23,"RHCPSD_Total":0.0068562021,"RHCErr_Total":4,"LatOffAvg_Align":0.9024359511,"LatOffAvg_Appr":0.5317825173,"LatOffAvg_FA":0.2663023999,"LatOffAvg_Total":0.4417046186,"RollRms_Align":0.713157115,"RollRms_Appr":1.0269297568,"RollRms_FA":1.7971568866,"RollRms_Total":1.5687070176,"YawRms_Align":0.0814002296,"YawRms_Appr":0.2849802883,"YawRms_FA":0.928620933,"YawRms_Total":0.7866367558,"PitchRms_Align":1.159528419,"PitchRms_Appr":0.7338910001,"PitchRms_FA":0.3357643313,"PitchRms_Total":0.6714133838,"DutyCycle_Align":0.0929319372,"DutyCycle_Appr":0.2745098039,"DutyCycle_FA":0.1539596655,"DutyCycle_Total":0.1393960674,"Aggressiveness_Align":0.4089157035,"Aggressiveness_Appr":0.4149411714,"Aggressiveness_FA":0.5980612172,"Aggressiveness_Total":0.5719432014,"Workload_Align":0.0380013285,"Workload_Appr":0.1139054196,"Workload_FA":0.092077305,"Workload_Total":0.0797266331,"THC_Align":36,"THC_Appr":6,"THC_FA":141,"THC_Total":183,"RHC_Align":0,"RHC_Appr":0,"RHC_FA":8,"RHC_Total":8,"CombJoy_Align":0,"CombJoy_Appr":0,"CombJoy_FA":3,"CombJoy_Total":3,"THCIndErr_Align":0,"THCIndErr_Appr":0,"THCIndErr_FA":0,"THCIndErr_Total":0,"RHCIndErr_Align":0,"RHCIndErr_Appr":0,"RHCIndErr_FA":2,"RHCIndErr_Total":2}
{"Flight ID":"8f4ff0970ddece061d4c3875dd273b10c6ccdbcd67ce7f3e39eef3a9d8b227d1","Date":2024,"Scenario":"A001","Manually modified Phases":"No","Start_Align":275.1496,"Duration_Align":271.262,"Start_Appr":546.4116,"Duration_Appr":71.2679,"Start_FA":617.6795,"Duration_FA":442.7679,"Time_Dock":1060.4474,"Duration_Total":785.2978,"OutOfCone_Align":78.5584,"OutOfCone_Appr":0,"OutOfCone_FA":0.0,"OutOfCone_Total":78.5584,"AboveClosingVel_Align":0.0,"AboveClosingVel_Appr":69.6214,"AboveClosingVel_FA":27.4736,"AboveClosingVel_Total":97.095,"Fuel_Align":12.747,"Fuel_Appr":2.085,"Fuel_FA":16.278,"Fuel_Total":31.11,"LatOffsetAtStart_Align":6.3336265283,"LatOffsetAtStart_Appr":1.2007351915,"LatOffsetAtStart_FA":1.8633306202,"LatOffsetAt_Dock":0.0540832691,"NoVisTime_Align":94.1828,"NoVisTime_Appr":0,"NoVisTime_FA":0.0,"NoVisTime_Total":94.1828,"THCPSD_Align":0.0697672411,"THCErr_Align":2,"RHCPSD_Align":0.0,"RHCErr_Align":0,"THCPSD_Appr":0.0371789258,"THCErr_Appr":3,"RHCPSD_Appr":0.0,"RHCErr_Appr":0,"THCPSD_FA":0.0595079167,"THCErr_FA":25,"RHCPSD_FA":0.0056970621,"RHCErr_FA":1,"THCPSD_Total":0.06603248,"THCErr_Total":30,"RHCPSD_Total":0.0032945501,"RHCErr_Total":1,"LatOffAvg_Align":3.1096890956,"LatOffAvg_Appr":1.0466265137,"LatOffAvg_FA":1.231297731,"LatOffAvg_Total":1.8636333692,"RollRms_Align":0.6393953928,"RollRms_Appr":0.9324679791,"RollRms_FA":1.4508378447,"RollRms_Total":1.1860112986,"YawRms_Align":0.8027023443,"YawRms_Appr":0.9332583954,"YawRms_FA":1.0642673327,"YawRms_Total":0.9696126352,"PitchRms_Align":1.4762840869,"PitchRms_Appr":2.4809005058,"PitchRms_FA":3.1616720338,"PitchRms_Total":2.6355517177,"DutyCycle_Align":0.0565317036,"DutyCycle_Appr":0.0668604651,"DutyCycle_FA":0.1175644028,"DutyCycle_Total":0.0913410771,"Aggressiveness_Align":0.253158379,"Aggressiveness_Appr":0.1957500628,"Aggressiveness_FA":0.5035453247,"Aggressiveness_Total":0.425825946,"Workload_Align":0.0143114744,"Workload_Appr":0.0130879402,"Workload_FA":0.0591990054,"Workload_Total":0.0388954006,"THC_Align":32,"THC_Appr":7,"THC_FA":97,"THC_Total":136,"RHC_Align":0,"RHC_Appr":0,"RHC_FA":9,"RHC_Total":9,"CombJoy_Align":0,"CombJoy_Appr":0,"CombJoy_FA":0,"CombJoy_Total":0,"THCIndErr_Align":1,"THCIndErr_Appr":0,"THCIndErr_FA":0,"THCIndErr_Total":1,"RHCIndErr_Align":0,"RHCIndErr_Appr":0,"RHCIndErr_FA":0,"RHCIndErr_Total":0}
{"Flight ID":"930f0f476b24be6b0929c9b10940b907f0de0863ed55dafc8f5f1ded66a97eda","Date":2024,"Scenario":"A001","Manually modified Phases":"No","Start_Align":33.5418,"Duration_Align":74.7487,"Start_Appr":108.2905,"Duration_Appr":55.2115,"Start_FA":163.502,"Duration_FA":177.9779,"Time_Dock":341.4799,"Duration_Total":307.9381,"OutOfCone_Align":0.0,"OutOfCone_Appr":0,"OutOfCone_FA":0.0,"OutOfCone_Total":0.0,"AboveClosingVel_Align":0.0,"AboveClosingVel_Appr":7.5539,"AboveClosingVel_FA":10.2802,"AboveClosingVel_Total":17.8341,"Fuel_Align":4.772,"Fuel_Appr":1.203,"Fuel_FA":2.886,"Fuel_Total":8.861,"LatOffsetAtStart_Align":1.259733702,"LatOffsetAtStart_Appr":0.2696405014,"LatOffsetAtStart_FA":0.0751664819,"LatOffsetAt_Dock":0.0589406481,"NoVisTime_Align":0.0,"NoVisTime_Appr":0,"NoVisTime_FA":0.0,"NoVisTime_Total":0.0,"THCPSD_Align":0.0571899107,"THCErr_Align":2,"RHCPSD_Align":0.0172894768,"RHCErr_Align":1,"THCPSD_Appr":0.0310580644,"THCErr_Appr":0,"RHCPSD_Appr":0.0061552126,"RHCErr_Appr":2,"THCPSD_FA":0.0112922667,"THCErr_FA":3,"RHCPSD_FA":0.0022586302,"RHCErr_FA":3,"THCPSD_Total":0.0279321117,"THCErr_Total":5,"RHCPSD_Total":0.0064188285,"RHCErr_Total":6,"LatOffAvg_Align":0.3254472673,"LatOffAvg_Appr":0.1511810665,"LatOffAvg_FA":0.1233358135,"LatOffAvg_Total":0.1775293998,"RollRms_Align":0.6149359168,"RollRms_Appr":0.3451075475,"RollRms_FA":0.4429207853,"RollRms_Total":0.4759768712,"YawRms_Align":0.139225069,"YawRms_Appr":0.2779518158,"YawRms_FA":0.1996678259,"YawRms_Total":0.2040216815,"PitchRms_Align":0.9930298365,"PitchRms_Appr":0.1745538231,"PitchRms_FA":0.1681231691,"PitchRms_Total":0.5115697023,"DutyCycle_Align":0.2451790634,"DutyCycle_Appr":0.1486988848,"DutyCycle_FA":0.1011627907,"DutyCycle_Total":0.144772118,"Aggressiveness_Align":0.6788176999,"Aggressiveness_Appr":0.5168101885,"Aggressiveness_FA":0.4316659696,"Aggressiveness_Total":0.5490484962,"Workload_Align":0.1664318879,"Workload_Appr":0.0768490987,"Workload_FA":0.0436685341,"Workload_Total":0.0794869137,"THC_Align":24,"THC_Appr":12,"THC_FA":27,"THC_Total":63,"RHC_Align":14,"RHC_Appr":6,"RHC_FA":13,"RHC_Total":33,"CombJoy_Align":0,"CombJoy_Appr":0,"CombJoy_FA":0,"CombJoy_Total":0,"THCIndErr_Align":0,"THCIndErr_Appr":0,"THCIndErr_FA":0,"THCIndErr_Total":0,"RHCIndErr_Align":1,"RHCIndErr_Appr":0,"RHCIndErr_FA":0,"RHCIndErr_Total":1}
{"Flight ID":"9b9db6b74e4d95f83e0df4226b2aaab4853307c7c03999dfb327530641e17d34","Date":2024,"Scenario":"A001","Manually modified Phases":"No","Start_Align":240.4594,"Duration_Align":171.0656,"Start_Appr":411.525,"Duration_Appr":4.8055,"Start_FA":416.3305,"Duration_FA":258.4034,"Time_Dock":674.7339,"Duration_Total":434.2745,"OutOfCone_Align":0.0,"OutOfCone_Appr":0,"OutOfCone_FA":0.0,"OutOfCone_Total":0.0,"AboveClosingVel_Align":0.0,"AboveClosingVel_Appr":4.5995,"AboveClosingVel_FA":5.464,"AboveClosingVel_Total":10.0635,"Fuel_Align":8.854,"Fuel_Appr":0.035,"Fuel_FA":12.377,"Fuel_Total":21.266,"LatOffsetAtStart_Align":0.4902295381,"LatOffsetAtStart_Appr":0.6910231545,"LatOffsetAtStart_FA":0.7527575971,"LatOffsetAt_Dock":0.1082450923,"NoVisTime_Align":0.0,"NoVisTime_Appr":0,"NoVisTime_FA":0.0,"NoVisTime_Total":0.0,"THCPSD_Align":0.0739685983,"THCErr_Align":6,"RHCPSD_Align":0.0009360044,"RHCErr_Align":1,"THCPSD_Appr":0.0094905363,"THCErr_Appr":1,"RHCPSD_Appr":0.0,"RHCErr_Appr":0,"THCPSD_FA":0.0784053276,"THCErr_FA":13,"RHCPSD_FA":0.0173639486,"RHCErr_FA":0,"THCPSD_Total":0.0737560615,"THCErr_Total":20,"RHCPSD_Total":0.0098075274,"RHCErr_Total":1,"LatOffAvg_Align":0.5155067337,"LatOffAvg_Appr":0.7202845398,"LatOffAvg_FA":0.291204826,"LatOffAvg_Total":0.3842808198,"RollRms_Align":0.9053138526,"RollRms_Appr":1.3468188607,"RollRms_FA":1.7004703522,"RollRms_Total":1.4364630566,"YawRms_Align":0.4665194675,"YawRms_Appr":0.8913916574,"YawRms_FA":0.5492610598,"YawRms_Total":0.5234254698,"PitchRms_Align":0.4640101946,"PitchRms_Appr":0.6375694336,"PitchRms_FA":0.60044905,"PitchRms_Total":0.551199603,"DutyCycle_Align":0.0773881499,"DutyCycle_Appr":0.0869565217,"DutyCycle_FA":0.1224979984,"DutyCycle_Total":0.1038589805,"Aggressiveness_Align":0.3772837528,"Aggressiveness_Appr":0.1724087954,"Aggressiveness_FA":0.5293827111,"Aggressiveness_Total":0.5061672015,"Workload_Align":0.0291972916,"Workload_Appr":0.0149920692,"Workload_FA":0.0648483225,"Workload_Total":0.0525700095,"THC_Align":24,"THC_Appr":0,"THC_FA":63,"THC_Total":87,"RHC_Align":3,"RHC_Appr":0,"RHC_FA":8,"RHC_Total":11,"CombJoy_Align":0,"CombJoy_Appr":0,"CombJoy_FA":1,"CombJoy_Total":1,"THCIndErr_Align":0,"THCIndErr_Appr":0,"THCIndErr_FA":0,"THCIndErr_Total":0,"RHCIndErr_Align":0,"RHCIndErr_Appr":0,"RHCIndErr_FA":0,"RHCIndErr_Total":0}
{"Flight ID":"a27ec95f6bd16322e07f31ff2d71d4153111aca936a8bba28825ce99d51d6840","Date":2024,"Scenario":"A001","Manually modified Phases":"No","Start_Align":56.549,"Duration_Align":117.4673,"Start_Appr":174.0163,"Duration_Appr":29.1671,"Start_FA":203.1834,"Duration_FA":139.5014,"Time_Dock":342.6848,"Duration_Total":286.1358,"OutOfCone_Align":0.0,"OutOfCone_Appr":0,"OutOfCone_FA":0.0,"OutOfCone_Total":0.0,"AboveClosingVel_Align":0.0,"AboveClosingVel_Appr":28.5488,"AboveClosingVel_FA":34.3454,"AboveClosingVel_Total":62.8942,"Fuel_Align":4.658,"Fuel_Appr":0.512,"Fuel_FA":2.934,"Fuel_Total":8.104,"LatOffsetAtStart_Align":1.1138334705,"LatOffsetAtStart_Appr":0.3146108708,"LatOffsetAtStart_FA":0.287099286,"LatOffsetAt_Dock":0.0750266619,"NoVisTime_Align":0.0,"NoVisTime_Appr":0,"NoVisTime_FA":0.0,"NoVisTime_Total":0.0,"THCPSD_Align":0.0433674663,"THCErr_Align":1,"RHCPSD_Align":0.0029699868,"RHCErr_Align":2,"THCPSD_Appr":0.0512438857,"THCErr_Appr":2,"RHCPSD_Appr":0.0,"RHCErr_Appr":0,"THCPSD_FA":0.0472668755,"THCErr_FA":8,"RHCPSD_FA":0.0,"RHCErr_FA":0,"THCPSD_Total":0.0503363058,"THCErr_Total":11,"RHCPSD_Total":0.0002687651,"RHCErr_Total":2,"LatOffAvg_Align":0.6342992328,"LatOffAvg_Appr":0.3552171162,"LatOffAvg_FA":0.1928979002,"LatOffAvg_Total":0.3905623664,"RollRms_Align":0.67052175,"RollRms_Appr":0.8080954221,"RollRms_FA":1.0377000095,"RollRms_Total":0.8809887123,"YawRms_Align":0.1048657928,"YawRms_Appr":0.369698783,"YawRms_FA":0.4540515993,"YawRms_Total":0.3449630232,"PitchRms_Align":0.4258736443,"PitchRms_Appr":0.6074654166,"PitchRms_FA":1.1379146678,"PitchRms_Total":0.8621360673,"DutyCycle_Align":0.0897887324,"DutyCycle_Appr":0.1056338028,"DutyCycle_FA":0.1451851852,"DutyCycle_Total":0.1176895307,"Aggressiveness_Align":0.4239282407,"Aggressiveness_Appr":0.4045575756,"Aggressiveness_FA":0.4788141083,"Aggressiveness_Total":0.4854014179,"Workload_Align":0.0380639794,"Workload_Appr":0.0427349552,"Workload_FA":0.069516715,"Workload_Total":0.0571266651,"THC_Align":16,"THC_Appr":6,"THC_FA":44,"THC_Total":66,"RHC_Align":6,"RHC_Appr":0,"RHC_FA":0,"RHC_Total":6,"CombJoy_Align":0,"CombJoy_Appr":0,"CombJoy_FA":0,"CombJoy_Total":0,"THCIndErr_Align":0,"THCIndErr_Appr":0,"THCIndErr_FA":0,"THCIndErr_Total":0,"RHCIndErr_Align":0,"RHCIndErr_Appr":0,"RHCIndErr_FA":0,"RHCIndErr_Total":0}
{"Flight ID":"a4687b5ca3cdf6aaf8292b61bd74d21310a8231062a21bae921aa449373cc4d4","Date":2024,"Scenario":"A001","Manually modified Phases":"No","Start_Align":156.8665,"Duration_Align":264.4698,"Start_Appr":421.3363,"Duration_Appr":6.4097,"Start_FA":427.746,"Duration_FA":142.0156,"Time_Dock":569.7616,"Duration_Total":412.8951,"OutOfCone_Align":0.0,"OutOfCone_Appr":0,"OutOfCone_FA":0.0,"OutOfCone_Total":0.0,"AboveClosingVel_Align":0.0,"AboveClosingVel_Appr":6.4097,"AboveClosingVel_FA":127.1483,"AboveClosingVel_Total":133.558,"Fuel_Align":7.311,"Fuel_Appr":0.241,"Fuel_FA":7.83,"Fuel_Total":15.382,"LatOffsetAtStart_Align":0.4808326112,"LatOffsetAtStart_Appr":0.1670269439,"LatOffsetAtStart_FA":0.1767088,"LatOffsetAt_Dock":0.1314610208,"NoVisTime_Align":0.0,"NoVisTime_Appr":0,"NoVisTime_FA":0.0,"NoVisTime_Total":0.0,"THCPSD_Align":0.0307428344,"THCErr_Align":6,"RHCPSD_Align":0.0197791139,"RHCErr_Align":3,"THCPSD_Appr":0.0527839082,"THCErr_Appr":1,"RHCPSD_Appr":0.0,"RHCErr_Appr":0,"THCPSD_FA":0.0644872807,"THCErr_FA":16,"RHCPSD_FA":0.0273001825,"RHCErr_FA":1,"THCPSD_Total":0.0464454104,"THCErr_Total":23,"RHCPSD_Total":0.0233224912,"RHCErr_Total":4,"LatOffAvg_Align":0.5727601094,"LatOffAvg_Appr":0.1767246377,"LatOffAvg_FA":0.13692894,"LatOffAvg_Total":0.4168355906,"RollRms_Align":1.1738538539,"RollRms_Appr":1.7740279119,"RollRms_FA":1.1582428712,"RollRms_Total":1.1801940582,"YawRms_Align":0.282030954,"YawRms_Appr":0.0640488725,"YawRms_FA":0.3281359155,"YawRms_Total":0.2967147558,"PitchRms_Align":1.169341809,"PitchRms_Appr":0.0520347279,"PitchRms_FA":0.3634741391,"PitchRms_Total":0.9600406385,"DutyCycle_Align":0.0757220921,"DutyCycle_Appr":0.2580645161,"DutyCycle_FA":0.2052401747,"DutyCycle_Total":0.1225612806,"Aggressiveness_Align":0.3904581697,"Aggressiveness_Appr":0.5375408323,"Aggressiveness_FA":0.7092781118,"Aggressiveness_Total":0.5421642468,"Workload_Align":0.0295663095,"Workload_Appr":0.1387202148,"Workload_FA":0.1455723636,"Workload_Total":0.0664483444,"THC_Align":26,"THC_Appr":3,"THC_FA":52,"THC_Total":81,"RHC_Align":11,"RHC_Appr":0,"RHC_FA":8,"RHC_Total":19,"CombJoy_Align":0,"CombJoy_Appr":0,"CombJoy_FA":0,"CombJoy_Total":0,"THCIndErr_Align":0,"THCIndErr_Appr":0,"THCIndErr_FA":0,"THCIndErr_Total":0,"RHCIndErr_Align":0,"RHCIndErr_Appr":0,"RHCIndErr_FA":0,"RHCIndErr_Total":0}
{"Flight ID":"adc1fc796c3a3e14a289de79799db8e4d512d1cd1a9e8973359c523c9c36aa2a","Date":2024,"Scenario":"A001","Manually modified Phases":"No","Start_Align":163.8869,"Duration_Align":116.8021,"Start_Appr":280.689,"Duration_Appr":125.3248,"Start_FA":406.0138,"Duration_FA":185.3047,"Time_Dock":591.3185,"Duration_Total":427.4316,"OutOfCone_Align":0.0,"OutOfCone_Appr":0,"OutOfCone_FA":0.0,"OutOfCone_Total":0.0,"AboveClosingVel_Align":0.0,"AboveClosingVel_Appr":0.0,"AboveClosingVel_FA":92.6127,"AboveClosingVel_Total":92.6127,"Fuel_Align":2.56,"Fuel_Appr":7.563,"Fuel_FA":4.732,"Fuel_Total":14.855,"LatOffsetAtStart_Align":0.4368352092,"LatOffsetAtStart_Appr":1.0251073115,"LatOffsetAtStart_FA":0.3168296072,"LatOffsetAt_Dock":0.0496487663,"NoVisTime_Align":0.0,"NoVisTime_Appr":0,"NoVisTime_FA":0.0,"NoVisTime_Total":0.0,"THCPSD_Align":0.0397114388,"THCErr_Align":4,"RHCPSD_Align":0.0,"RHCErr_Align":0,"THCPSD_Appr":0.0682909765,"THCErr_Appr":5,"RHCPSD_Appr":0.0,"RHCErr_Appr":0,"THCPSD_FA":0.0335960513,"THCErr_FA":9,"RHCPSD_FA":0.011390672,"RHCErr_FA":0,"THCPSD_Total":0.0475158603,"THCErr_Total":18,"RHCPSD_Total":0.0029597154,"RHCErr_Total":0,"LatOffAvg_Align":0.6957650285,"LatOffAvg_Appr":1.3505225497,"LatOffAvg_FA":0.2950105652,"LatOffAvg_Total":0.7139108888,"RollRms_Align":0.6082911581,"RollRms_Appr":0.4833547796,"RollRms_FA":0.4015008728,"RollRms_Total":0.4893805079,"YawRms_Align":0.1342246318,"YawRms_Appr":0.4681462422,"YawRms_FA":1.2647292651,"YawRms_Total":0.8733627859,"PitchRms_Align":1.2370824333,"PitchRms_Appr":0.6863192255,"PitchRms_FA":0.3885202568,"PitchRms_Total":0.7884843457,"DutyCycle_Align":0.0691489362,"DutyCycle_Appr":0.105785124,"DutyCycle_FA":0.1363128492,"DutyCycle_Total":0.1090116279,"Aggressiveness_Align":0.3138758415,"Aggressiveness_Appr":0.4125864479,"Aggressiveness_FA":0.5191399326,"Aggressiveness_Total":0.4657764254,"Workload_Align":0.0217041805,"Workload_Appr":0.0436455085,"Workload_FA":0.0707654433,"Workload_Total":0.0507750464,"THC_Align":17,"THC_Appr":29,"THC_FA":53,"THC_Total":99,"RHC_Align":0,"RHC_Appr":0,"RHC_FA":3,"RHC_Total":3,"CombJoy_Align":0,"CombJoy_Appr":0,"CombJoy_FA":3,"CombJoy_Total":3,"THCIndErr_Align":0,"THCIndErr_Appr":0,"THCIndErr_FA":0,"THCIndErr_Total":0,"RHCIndErr_Align":0,"RHCIndErr_Appr":0,"RHCIndErr_FA":0,"RHCIndErr_Total":0}
{"Flight ID":"af5ea10325e5fc7ef970f2c517547db155a8125d646bb6bbb50404040cf4f6e5","Date":2024,"Scenario":"A001","Manually modified Phases":"No","Start_Align":151.3747,"Duration_Align":178.4659,"Start_Appr":329.8406,"Duration_Appr":5.7931,"Start_FA":335.6337,"Duration_FA":178.527,"Time_Dock":514.1607,"Duration_Total":362.786,"OutOfCone_Align":0.0,"OutOfCone_Appr":0,"OutOfCone_FA":0.0,"OutOfCone_Total":0.0,"AboveClosingVel_Align":0.0,"AboveClosingVel_Appr":5.586,"AboveClosingVel_FA":53.2781,"AboveClosingVel_Total":58.8641,"Fuel_Align":3.987,"Fuel_Appr":0.15,"Fuel_FA":2.142,"Fuel_Total":6.279,"LatOffsetAtStart_Align":0.515655893,"LatOffsetAtStart_Appr":0.4188078318,"LatOffsetAtStart_FA":0.4278983524,"LatOffsetAt_Dock":0.1474720312,"NoVisTime_Align":0.0,"NoVisTime_Appr":0,"NoVisTime_FA":0.0,"NoVisTime_Total":0.0,"THCPSD_Align":0.0189139726,"THCErr_Align":1,"RHCPSD_Align":0.0012662438,"RHCErr_Align":2,"THCPSD_Appr":0.051065516,"THCErr_Appr":4,"RHCPSD_Appr":0.0,"RHCErr_Appr":0,"THCPSD_FA":0.0328886625,"THCErr_FA":19,"RHCPSD_FA":0.0,"RHCErr_FA":0,"THCPSD_Total":0.0248268993,"THCErr_Total":24,"RHCPSD_Total":0.0004309037,"RHCErr_Total":2,"LatOffAvg_Align":0.3725899195,"LatOffAvg_Appr":0.4257945101,"LatOffAvg_FA":0.1904209815,"LatOffAvg_Total":0.2836469174,"RollRms_Align":1.010919573,"RollRms_Appr":1.4110613913,"RollRms_FA":1.9251179092,"RollRms_Total":1.5363499977,"YawRms_Align":0.0770209432,"YawRms_Appr":0.2156684791,"YawRms_FA":0.6175282593,"YawRms_Total":0.4377383746,"PitchRms_Align":0.4218899757,"PitchRms_Appr":0.6125639034,"PitchRms_FA":0.3277785722,"PitchRms_Total":0.3825651393,"DutyCycle_Align":0.0844907407,"DutyCycle_Appr":0.3571428571,"DutyCycle_FA":0.1637831603,"DutyCycle_Total":0.1284820921,"Aggressiveness_Align":0.4299221881,"Aggressiveness_Appr":0.5808215182,"Aggressiveness_FA":0.525657695,"Aggressiveness_Total":0.531482516,"Workload_Align":0.0363244441,"Workload_Appr":0.2074362565,"Workload_FA":0.0860938785,"Workload_Total":0.0682859856,"THC_Align":23,"THC_Appr":5,"THC_FA":67,"THC_Total":95,"RHC_Align":9,"RHC_Appr":0,"RHC_FA":0,"RHC_Total":9,"CombJoy_Align":0,"CombJoy_Appr":0,"CombJoy_FA":0,"CombJoy_Total":0,"THCIndErr_Align":0,"THCIndErr_Appr":0,"THCIndErr_FA":0,"THCIndErr_Total":0,"RHCIndErr_Align":0,"RHCIndErr_Appr":0,"RHCIndErr_FA":0,"RHCIndErr_Total":0}
{"Flight ID":"ca78e4f03d340890e0163a1a068a4902e43da3f74e78b372939a540c92149b54","Date":2024,"Scenario":"A001","Manually modified Phases":"No","Start_Align":46.0153,"Duration_Align":5.028,"Start_Appr":51.0433,"Duration_Appr":52.1187,"Start_FA":103.162,"Duration_FA":264.1521,"Time_Dock":367.3141,"Duration_Total":321.2988,"OutOfCone_Align":0.0,"OutOfCone_Appr":0,"OutOfCone_FA":0.0,"OutOfCone_Total":0.0,"AboveClosingVel_Align":0.0,"AboveClosingVel_Appr":27.2666,"AboveClosingVel_FA":47.3009,"AboveClosingVel_Total":74.5675,"Fuel_Align":0.304,"Fuel_Appr":1.654,"Fuel_FA":5.882,"Fuel_Total":7.84,"LatOffsetAtStart_Align":1.1804338186,"LatOffsetAtStart_Appr":1.143759153,"LatOffsetAtStart_FA":0.3960050505,"LatOffsetAt_Dock":0.0771038261,"NoVisTime_Align":0.0,"NoVisTime_Appr":0,"NoVisTime_FA":0.0,"NoVisTime_Total":0.0,"THCPSD_Align":0.0712100472,"THCErr_Align":0,"RHCPSD_Align":0.0,"RHCErr_Align":0,"THCPSD_Appr":0.0675529117,"THCErr_Appr":2,"RHCPSD_Appr":0.0,"RHCErr_Appr":0,"THCPSD_FA":0.0538912503,"THCErr_FA":15,"RHCPSD_FA":0.0,"RHCErr_FA":0,"THCPSD_Total":0.0576622569,"THCErr_Total":17,"RHCPSD_Total":0.0,"RHCErr_Total":0,"LatOffAvg_Align":1.1633661936,"LatOffAvg_Appr":0.7011721967,"LatOffAvg_FA":0.2151023649,"LatOffAvg_Total":0.3094431484,"RollRms_Align":0.641,"RollRms_Appr":0.6339578316,"RollRms_FA":1.1029830119,"RollRms_Total":1.0348113538,"YawRms_Align":0.012,"YawRms_Appr":0.0323972321,"YawRms_FA":0.4657293717,"YawRms_Total":0.4221819011,"PitchRms_Align":1.3425990032,"PitchRms_Appr":1.1699987455,"PitchRms_FA":0.4736282967,"PitchRms_Total":0.660400628,"DutyCycle_Align":0.2916666667,"DutyCycle_Appr":0.0564516129,"DutyCycle_FA":0.1138732959,"DutyCycle_Total":0.1066491113,"Aggressiveness_Align":0.399538455,"Aggressiveness_Appr":0.2242892128,"Aggressiveness_FA":0.4451795781,"Aggressiveness_Total":0.434528219,"Workload_Align":0.1165320494,"Workload_Appr":0.0126614878,"Workload_FA":0.0506940658,"Workload_Total":0.0463420484,"THC_Align":4,"THC_Appr":6,"THC_FA":71,"THC_Total":81,"RHC_Align":0,"RHC_Appr":0,"RHC_FA":0,"RHC_Total":0,"CombJoy_Align":0,"CombJoy_Appr":0,"CombJoy_FA":0,"CombJoy_Total":0,"THCIndErr_Align":0,"THCIndErr_Appr":0,"THCIndErr_FA":0,"THCIndErr_Total":0,"RHCIndErr_Align":0,"RHCIndErr_Appr":0,"RHCIndErr_FA":0,"RHCIndErr_Total":0}
{"Flight ID":"cdef65a29e96bace74e1b1af2bf8e8db6984d8eb0ac1efb9449229179c88aac9","Date":2024,"Scenario":"A001","Manually modified Phases":"Yes","Start_Align":407.0795,"Duration_Align":297.797,"Start_Appr":704.8765,"Duration_Appr":154.3422,"Start_FA":859.2187,"Duration_FA":228.6869,"Time_Dock":1087.9056,"Duration_Total":680.8261,"OutOfCone_Align":59.4576,"OutOfCone_Appr":0,"OutOfCone_FA":0.0,"OutOfCone_Total":59.4576,"AboveClosingVel_Align":0.0,"AboveClosingVel_Appr":0.0,"AboveClosingVel_FA":0.0,"AboveClosingVel_Total":0.0,"Fuel_Align":3.119,"Fuel_Appr":4.668,"Fuel_FA":0.912,"Fuel_Total":8.699,"LatOffsetAtStart_Align":12.4419899132,"LatOffsetAtStart_Appr":0.495827591,"LatOffsetAtStart_FA":0.3914958493,"LatOffsetAt_Dock":0.0858428797,"NoVisTime_Align":70.3203,"NoVisTime_Appr":0,"NoVisTime_FA":0.0,"NoVisTime_Total":70.3203,"THCPSD_Align":0.0218575309,"THCErr_Align":0,"RHCPSD_Align":0.0,"RHCErr_Align":0,"THCPSD_Appr":0.0059794513,"THCErr_Appr":1,"RHCPSD_Appr":0.0356957168,"RHCErr_Appr":1,"THCPSD_FA":0.0032620567,"THCErr_FA":4,"RHCPSD_FA":0.0024436795,"RHCErr_FA":0,"THCPSD_Total":0.013463614,"THCErr_Total":5,"RHCPSD_Total":0.0079334226,"RHCErr_Total":1,"LatOffAvg_Align":3.2063140208,"LatOffAvg_Appr":0.3786434797,"LatOffAvg_FA":0.2400280168,"LatOffAvg_Total":1.5739106472,"RollRms_Align":1.3217408346,"RollRms_Appr":1.9323428484,"RollRms_FA":0.4603142274,"RollRms_Total":1.2992062712,"YawRms_Align":0.4781276342,"YawRms_Appr":0.3306793691,"YawRms_FA":0.3563588149,"YawRms_Total":0.4093733756,"PitchRms_Align":0.6071287188,"PitchRms_Appr":0.4693338432,"PitchRms_FA":0.4488705778,"PitchRms_Total":0.5283333651,"DutyCycle_Align":0.0664819945,"DutyCycle_Appr":0.1041388518,"DutyCycle_FA":0.0383211679,"DutyCycle_Total":0.065673457,"Aggressiveness_Align":0.3482609824,"Aggressiveness_Appr":0.4623032372,"Aggressiveness_FA":0.245973892,"Aggressiveness_Total":0.425636042,"Workload_Align":0.0231530847,"Workload_Appr":0.0481437283,"Workload_FA":0.0094260068,"Workload_Total":0.0279529903,"THC_Align":46,"THC_Appr":13,"THC_FA":15,"THC_Total":74,"RHC_Align":0,"RHC_Appr":15,"RHC_FA":5,"RHC_Total":20,"CombJoy_Align":0,"CombJoy_Appr":0,"CombJoy_FA":0,"CombJoy_Total":0,"THCIndErr_Align":0,"THCIndErr_Appr":0,"THCIndErr_FA":0,"THCIndErr_Total":0,"RHCIndErr_Align":0,"RHCIndErr_Appr":0,"RHCIndErr_FA":0,"RHCIndErr_Total":0}
{"Flight ID":"d16a56c78318425fe247a817cbf0b49538fdd607dc8cabda7aa5f34faed9a4c5","Date":2024,"Scenario":"A001","Manually modified Phases":"No","Start_Align":12.7441,"Duration_Align":10.3201,"Start_Appr":23.0642,"Duration_Appr":108.5063,"Start_FA":131.5705,"Duration_FA":177.138,"Time_Dock":308.7085,"Duration_Total":295.9644,"OutOfCone_Align":0.0,"OutOfCone_Appr":0,"OutOfCone_FA":0.0,"OutOfCone_Total":0.0,"AboveClosingVel_Align":0.0,"AboveClosingVel_Appr":17.7295,"AboveClosingVel_FA":82.8698,"AboveClosingVel_Total":100.5993,"Fuel_Align":0.391,"Fuel_Appr":3.804,"Fuel_FA":3.229,"Fuel_Total":7.424,"LatOffsetAtStart_Align":1.3950498199,"LatOffsetAtStart_Appr":1.1141548366,"LatOffsetAtStart_FA":0.4142957881,"LatOffsetAt_Dock":0.1359154149,"NoVisTime_Align":0.0,"NoVisTime_Appr":0,"NoVisTime_FA":0.0,"NoVisTime_Total":0.0,"THCPSD_Align":0.0385762831,"THCErr_Align":0,"RHCPSD_Align":0.0,"RHCErr_Align":0,"THCPSD_Appr":0.0782770006,"THCErr_Appr":6,"RHCPSD_Appr":0.0,"RHCErr_Appr":0,"THCPSD_FA":0.0491402725,"THCErr_FA":15,"RHCPSD_FA":0.0,"RHCErr_FA":0,"THCPSD_Total":0.0587767151,"THCErr_Total":21,"RHCPSD_Total":0.0,"RHCErr_Total":0,"LatOffAvg_Align":1.2564135427,"LatOffAvg_Appr":0.5884039146,"LatOffAvg_FA":0.2110072354,"LatOffAvg_Total":0.3857480393,"RollRms_Align":0.641,"RollRms_Appr":0.4519651778,"RollRms_FA":0.4613100429,"RollRms_Total":0.4653938236,"YawRms_Align":0.011980818,"YawRms_Appr":0.3137429612,"YawRms_FA":1.2132253272,"YawRms_Total":0.9577935478,"PitchRms_Align":1.3449880223,"PitchRms_Appr":0.9876330444,"PitchRms_FA":0.3546005221,"PitchRms_Total":0.7041056266,"DutyCycle_Align":0.12,"DutyCycle_Appr":0.1219047619,"DutyCycle_FA":0.1713286713,"DutyCycle_Total":0.1507327285,"Aggressiveness_Align":0.2795173593,"Aggressiveness_Appr":0.4661472566,"Aggressiveness_FA":0.5015543988,"Aggressiveness_Total":0.5056953399,"Workload_Align":0.0335420831,"Workload_Appr":0.0568255703,"Workload_FA":0.0859306487,"Workload_Total":0.0762248384,"THC_Align":3,"THC_Appr":30,"THC_FA":71,"THC_Total":104,"RHC_Align":0,"RHC_Appr":0,"RHC_FA":0,"RHC_Total":0,"CombJoy_Align":0,"CombJoy_Appr":0,"CombJoy_FA":0,"CombJoy_Total":0,"THCIndErr_Align":0,"THCIndErr_Appr":0,"THCIndErr_FA":0,"THCIndErr_Total":0,"RHCIndErr_Align":0,"RHCIndErr_Appr":0,"RHCIndErr_FA":0,"RHCIndErr_Total":0}
{"Flight ID":"d798f6a41f2375d62e0f2fabda536241fca03c07cd34e218736843bcc15cdf7f","Date":2024,"Scenario":"A001","Manually modified Phases":"Yes","Start_Align":71.7121,"Duration_Align":360.6092,"Start_Appr":432.3213,"Duration_Appr":21.9281,"Start_FA":454.2494,"Duration_FA":194.7308,"Time_Dock":648.9802,"Duration_Total":577.2681,"OutOfCone_Align":0.0,"OutOfCone_Appr":0,"OutOfCone_FA":0.0,"OutOfCone_Total":0.0,"AboveClosingVel_Align":0.0,"AboveClosingVel_Appr":0.0,"AboveClosingVel_FA":0.0,"AboveClosingVel_Total":0.0,"Fuel_Align":9.533,"Fuel_Appr":0.216,"Fuel_FA":5.371,"Fuel_Total":15.12,"LatOffsetAtStart_Align":1.0297188937,"LatOffsetAtStart_Appr":0.1700646936,"LatOffsetAtStart_FA":0.1910497317,"LatOffsetAt_Dock":0.0155563492,"NoVisTime_Align":0.0,"NoVisTime_Appr":0,"NoVisTime_FA":0.0,"NoVisTime_Total":0.0,"THCPSD_Align":0.0347638868,"THCErr_Align":13,"RHCPSD_Align":0.0115221821,"RHCErr_Align":4,"THCPSD_Appr":0.0302487654,"THCErr_Appr":1,"RHCPSD_Appr":0.0,"RHCErr_Appr":0,"THCPSD_FA":0.0308192858,"THCErr_FA":11,"RHCPSD_FA":0.0100779204,"RHCErr_FA":1,"THCPSD_Total":0.0354980055,"THCErr_Total":25,"RHCPSD_Total":0.0123885076,"RHCErr_Total":5,"LatOffAvg_Align":0.4938608458,"LatOffAvg_Appr":0.1341642805,"LatOffAvg_FA":0.1644835124,"LatOffAvg_Total":0.3693922056,"RollRms_Align":1.1498717754,"RollRms_Appr":0.6637289456,"RollRms_FA":0.4610946067,"RollRms_Total":0.9568330234,"YawRms_Align":0.6000755574,"YawRms_Appr":0.5879914484,"YawRms_FA":0.5346466113,"YawRms_Total":0.5784357385,"PitchRms_Align":0.821420764,"PitchRms_Appr":0.3254174532,"PitchRms_FA":0.6484795569,"PitchRms_Total":0.7533427722,"DutyCycle_Align":0.0929024812,"DutyCycle_Appr":0.0377358491,"DutyCycle_FA":0.1203007519,"DutyCycle_Total":0.1,"Aggressiveness_Align":0.4774734806,"Aggressiveness_Appr":0.1572392173,"Aggressiveness_FA":0.4812644023,"Aggressiveness_Total":0.4803521187,"Workload_Align":0.0443584711,"Workload_Appr":0.0059335554,"Workload_FA":0.0578964694,"Workload_Total":0.0480352119,"THC_Align":56,"THC_Appr":2,"THC_FA":40,"THC_Total":98,"RHC_Align":16,"RHC_Appr":0,"RHC_FA":7,"RHC_Total":23,"CombJoy_Align":4,"CombJoy_Appr":0,"CombJoy_FA":0,"CombJoy_Total":4,"THCIndErr_Align":0,"THCIndErr_Appr":0,"THCIndErr_FA":0,"THCIndErr_Total":0,"RHCIndErr_Align":0,"RHCIndErr_Appr":0,"RHCIndErr_FA":1,"RHCIndErr_Total":1}
