{"Flight ID":"041622b24c162a2d43fa3644333c4b3e25b766529c60eeeb0c71a10099421657","Date":2024,"Scenario":"A002","Manually modified Phases":"No","Start_Align":91.4548,"Duration_Align":18.8403,"Start_Appr":110.2951,"Duration_Appr":157.3482,"Start_FA":267.6433,"Duration_FA":99.35,"Time_Dock":366.9933,"Duration_Total":275.5385,"OutOfCone_Align":0.0,"OutOfCone_Appr":0.0,"OutOfCone_FA":0.0,"OutOfCone_Total":0.0,"AboveClosingVel_Align":0,"AboveClosingVel_Appr":143.2957,"AboveClosingVel_FA":52.7881,"AboveClosingVel_Total":196.0838,"Fuel_Align":0.625,"Fuel_Appr":3.036,"Fuel_FA":1.103,"Fuel_Total":4.764,"LatOffsetAtStart_Align":2.6259087951,"LatOffsetAtStart_Appr":2.9421148856,"LatOffsetAtStart_FA":0.481300322,"LatOffsetAt_Dock":0.1276126953,"NoVisTime_Align":0.0,"NoVisTime_Appr":0.0,"NoVisTime_FA":0.0,"NoVisTime_Total":0.0,"THCPSD_Align":0.0555376466,"THCErr_Align":4,"RHCPSD_Align":0.0,"RHCErr_Align":0,"THCPSD_Appr":0.0453526859,"THCErr_Appr":8,"RHCPSD_Appr":0.0,"RHCErr_Appr":0,"THCPSD_FA":0.0438890273,"THCErr_FA":5,"RHCPSD_FA":0.0,"RHCErr_FA":0,"THCPSD_Total":0.0459370767,"THCErr_Total":17,"RHCPSD_Total":0.0,"RHCErr_Total":0,"LatOffAvg_Align":2.7560709021,"LatOffAvg_Appr":1.7357253017,"LatOffAvg_FA":0.2628429329,"LatOffAvg_Total":1.2751478166,"RollRms_Align":0.3175787693,"RollRms_Appr":0.169887255,"RollRms_FA":0.3513275689,"RollRms_Total":0.2605066089,"YawRms_Align":0.1315855131,"YawRms_Appr":0.7466965445,"YawRms_FA":1.5390826188,"YawRms_Total":1.0830187103,"PitchRms_Align":0.2080825597,"PitchRms_Appr":0.1519717852,"PitchRms_FA":0.4047129232,"PitchRms_Total":0.2741559906,"Aggressiveness_Align":0.4781320364,"Aggressiveness_Appr":0.4733785883,"Aggressiveness_FA":0.5020191292,"Aggressiveness_Total":0.4985804052,"DutyCycle_Align":0.2087912088,"DutyCycle_Appr":0.1319261214,"DutyCycle_FA":0.1422594142,"DutyCycle_Total":0.140919367,"Workload_Align":0.0998297658,"Workload_Appr":0.0624510011,"Workload_FA":0.0714169472,"Workload_Total":0.0702596351,"THC_Align":10,"THC_Appr":47,"THC_FA":33,"THC_Total":90,"RHC_Align":0,"RHC_Appr":0,"RHC_FA":0,"RHC_Total":0,"CombJoy_Align":0,"CombJoy_Appr":0,"CombJoy_FA":0,"CombJoy_Total":0,"THCIndErr_Align":0,"THCIndErr_Appr":0,"THCIndErr_FA":0,"THCIndErr_Total":0,"RHCIndErr_Align":0,"RHCIndErr_Appr":0,"RHCIndErr_FA":0,"RHCIndErr_Total":0}
{"Flight ID":"04762337e5cae606ef06a0625a673f3e752823ba87a1424975a1c7cbc59b2e3a","Date":2024,"Scenario":"A002","Manually modified Phases":"No","Start_Align":4.1781,"Duration_Align":3.1981,"Start_Appr":7.3762,"Duration_Appr":220.6364,"Start_FA":228.0126,"Duration_FA":104.9712,"Time_Dock":332.9838,"Duration_Total":328.8057,"OutOfCone_Align":0.0,"OutOfCone_Appr":0.0,"OutOfCone_FA":0.0,"OutOfCone_Total":0.0,"AboveClosingVel_Align":0,"AboveClosingVel_Appr":101.5856,"AboveClosingVel_FA":104.9712,"AboveClosingVel_Total":206.5568,"Fuel_Align":0.326,"Fuel_Appr":6.902,"Fuel_FA":5.178,"Fuel_Total":12.406,"LatOffsetAtStart_Align":1.8541510187,"LatOffsetAtStart_Appr":1.8701069488,"LatOffsetAtStart_FA":0.4789874737,"LatOffsetAt_Dock":0.0447213595,"NoVisTime_Align":0.0,"NoVisTime_Appr":0.0,"NoVisTime_FA":0.0,"NoVisTime_Total":0.0,"THCPSD_Align":0.0236603175,"THCErr_Align":0,"RHCPSD_Align":0.0,"RHCErr_Align":0,"THCPSD_Appr":0.0621181898,"THCErr_Appr":3,"RHCPSD_Appr":0.0,"RHCErr_Appr":0,"THCPSD_FA":0.0245907456,"THCErr_FA":3,"RHCPSD_FA":0.0120481413,"RHCErr_FA":4,"THCPSD_Total":0.0507364487,"THCErr_Total":6,"RHCPSD_Total":0.0016612615,"RHCErr_Total":4,"LatOffAvg_Align":1.8614604542,"LatOffAvg_Appr":0.5940066848,"LatOffAvg_FA":0.2095743598,"LatOffAvg_Total":0.4836491346,"RollRms_Align":0.312,"RollRms_Appr":0.3410900094,"RollRms_FA":0.4091961057,"RollRms_Total":0.3639271081,"YawRms_Align":0.124,"YawRms_Appr":0.1953254742,"YawRms_FA":0.3783065525,"YawRms_Total":0.2671707341,"PitchRms_Align":0.2122828302,"PitchRms_Appr":0.579824417,"PitchRms_FA":1.0277402649,"PitchRms_Total":0.7502333826,"Aggressiveness_Align":0.301063905,"Aggressiveness_Appr":0.3404301273,"Aggressiveness_FA":0.4832573781,"Aggressiveness_Total":0.4268803729,"DutyCycle_Align":0.2,"DutyCycle_Appr":0.0703422053,"DutyCycle_FA":0.2244488978,"DutyCycle_Total":0.1200510856,"Workload_Align":0.060212781,"Workload_Appr":0.0239466059,"Workload_FA":0.1084665859,"Workload_Total":0.0512474522,"THC_Align":2,"THC_Appr":35,"THC_FA":21,"THC_Total":58,"RHC_Align":0,"RHC_Appr":0,"RHC_FA":16,"RHC_Total":16,"CombJoy_Align":0,"CombJoy_Appr":0,"CombJoy_FA":0,"CombJoy_Total":0,"THCIndErr_Align":0,"THCIndErr_Appr":0,"THCIndErr_FA":0,"THCIndErr_Total":0,"RHCIndErr_Align":0,"RHCIndErr_Appr":0,"RHCIndErr_FA":0,"RHCIndErr_Total":0}
{"Flight ID":"07e50668f126c1d969f3189fbd285c3c0f1acf700c89ec3e9e8da848ca7c7a00","Date":2024,"Scenario":"A002","Manually modified Phases":"No","Start_Align":245.8071,"Duration_Align":248.5452,"Start_Appr":494.3523,"Duration_Appr":438.7361,"Start_FA":933.0884,"Duration_FA":206.8123,"Time_Dock":1139.9007,"Duration_Total":894.0936,"OutOfCone_Align":0.0,"OutOfCone_Appr":0.0,"OutOfCone_FA":0.0,"OutOfCone_Total":0.0,"AboveClosingVel_Align":0,"AboveClosingVel_Appr":0.0,"AboveClosingVel_FA":0.0,"AboveClosingVel_Total":0.0,"Fuel_Align":2.958,"Fuel_Appr":4.63,"Fuel_FA":4.147,"Fuel_Total":11.735,"LatOffsetAtStart_Align":8.485760838,"LatOffsetAtStart_Appr":1.6553407504,"LatOffsetAtStart_FA":0.1799777764,"LatOffsetAt_Dock":0.2144621179,"NoVisTime_Align":0.0,"NoVisTime_Appr":0.0,"NoVisTime_FA":0.0,"NoVisTime_Total":0.0,"THCPSD_Align":0.0193132791,"THCErr_Align":0,"RHCPSD_Align":0.0,"RHCErr_Align":0,"THCPSD_Appr":0.0152925912,"THCErr_Appr":4,"RHCPSD_Appr":0.0019889238,"RHCErr_Appr":0,"THCPSD_FA":0.036299249,"THCErr_FA":10,"RHCPSD_FA":0.0022471056,"RHCErr_FA":0,"THCPSD_Total":0.02343159,"THCErr_Total":14,"RHCPSD_Total":0.0027062335,"RHCErr_Total":0,"LatOffAvg_Align":4.8320671705,"LatOffAvg_Appr":0.2396597703,"LatOffAvg_FA":0.2064691172,"LatOffAvg_Total":1.5051995696,"RollRms_Align":0.3731157871,"RollRms_Appr":0.6334368417,"RollRms_FA":1.1383212449,"RollRms_Total":0.7321651651,"YawRms_Align":0.1159083084,"YawRms_Appr":0.4947125447,"YawRms_FA":1.0400256255,"YawRms_Total":0.6121417647,"PitchRms_Align":0.187967059,"PitchRms_Appr":0.6478074212,"PitchRms_FA":0.3709495547,"PitchRms_Total":0.4976797643,"Aggressiveness_Align":0.2185310803,"Aggressiveness_Appr":0.33341624,"Aggressiveness_FA":0.3960122158,"Aggressiveness_Total":0.3365114881,"DutyCycle_Align":0.0318524728,"DutyCycle_Appr":0.0572916667,"DutyCycle_FA":0.0791583166,"DutyCycle_Total":0.0553102487,"Workload_Align":0.0069607553,"Workload_Appr":0.0191019721,"Workload_FA":0.0313476604,"Workload_Total":0.0186125341,"THC_Align":18,"THC_Appr":54,"THC_FA":33,"THC_Total":105,"RHC_Align":0,"RHC_Appr":2,"RHC_FA":3,"RHC_Total":5,"CombJoy_Align":0,"CombJoy_Appr":0,"CombJoy_FA":0,"CombJoy_Total":0,"THCIndErr_Align":0,"THCIndErr_Appr":0,"THCIndErr_FA":0,"THCIndErr_Total":0,"RHCIndErr_Align":0,"RHCIndErr_Appr":0,"RHCIndErr_FA":0,"RHCIndErr_Total":0}
{"Flight ID":"0a3fc0138fa917d54f366ec12c6f7bbad6e89a2cf85f80d7b541d69ab34c2f11","Date":2024,"Scenario":"A002","Manually modified Phases":"No","Start_Align":66.694,"Duration_Align":8.3932,"Start_Appr":75.0872,"Duration_Appr":442.7207,"Start_FA":517.8079,"Duration_FA":213.0033,"Time_Dock":730.8112,"Duration_Total":664.1172,"OutOfCone_Align":0.0,"OutOfCone_Appr":0.0,"OutOfCone_FA":0.0,"OutOfCone_Total":0.0,"AboveClosingVel_Align":0,"AboveClosingVel_Appr":0.0,"AboveClosingVel_FA":0.0,"AboveClosingVel_Total":0.0,"Fuel_Align":0.331,"Fuel_Appr":11.777,"Fuel_FA":14.583,"Fuel_Total":26.691,"LatOffsetAtStart_Align":2.2826519665,"LatOffsetAtStart_Appr":2.3832469448,"LatOffsetAtStart_FA":0.1865502613,"LatOffsetAt_Dock":0.0624259561,"NoVisTime_Align":0.0,"NoVisTime_Appr":0.0,"NoVisTime_FA":0.0,"NoVisTime_Total":0.0,"THCPSD_Align":0.0626947851,"THCErr_Align":0,"RHCPSD_Align":0.0,"RHCErr_Align":0,"THCPSD_Appr":0.0485059872,"THCErr_Appr":12,"RHCPSD_Appr":0.0073545875,"RHCErr_Appr":3,"THCPSD_FA":0.0670581914,"THCErr_FA":12,"RHCPSD_FA":0.037052743,"RHCErr_FA":8,"THCPSD_Total":0.0510495541,"THCErr_Total":24,"RHCPSD_Total":0.015511054,"RHCErr_Total":11,"LatOffAvg_Align":2.3300455921,"LatOffAvg_Appr":0.540157903,"LatOffAvg_FA":0.1548701164,"LatOffAvg_Total":0.4397513106,"RollRms_Align":0.313,"RollRms_Appr":1.3936557909,"RollRms_FA":2.1444344806,"RollRms_Total":1.6639043465,"YawRms_Align":0.123,"YawRms_Appr":0.1585733254,"YawRms_FA":0.3432546229,"YawRms_Total":0.2338136529,"PitchRms_Align":0.20374847,"PitchRms_Appr":0.6156392918,"PitchRms_FA":0.4688847891,"PitchRms_Total":0.5690167964,"Aggressiveness_Align":0.4250261062,"Aggressiveness_Appr":0.4678958699,"Aggressiveness_FA":0.5393286345,"Aggressiveness_Total":0.541577042,"DutyCycle_Align":0.2926829268,"DutyCycle_Appr":0.1129785247,"DutyCycle_FA":0.1499513145,"DutyCycle_Total":0.1271028037,"Workload_Align":0.1243978847,"Workload_Appr":0.0528621851,"Workload_FA":0.0808730377,"Workload_Total":0.0688359605,"THC_Align":6,"THC_Appr":95,"THC_FA":42,"THC_Total":143,"RHC_Align":0,"RHC_Appr":9,"RHC_FA":21,"RHC_Total":30,"CombJoy_Align":0,"CombJoy_Appr":1,"CombJoy_FA":3,"CombJoy_Total":4,"THCIndErr_Align":0,"THCIndErr_Appr":0,"THCIndErr_FA":0,"THCIndErr_Total":0,"RHCIndErr_Align":0,"RHCIndErr_Appr":0,"RHCIndErr_FA":2,"RHCIndErr_Total":2}
{"Flight ID":"0ea199e94ecf2d8b02e22c111af56abe5822826a7b2185a193cbdad09ad79df4","Date":2024,"Scenario":"A002","Manually modified Phases":"No","Start_Align":20.622,"Duration_Align":478.9625,"Start_Appr":499.5845,"Duration_Appr":291.7902,"Start_FA":791.3747,"Duration_FA":441.7088,"Time_Dock":1233.0835,"Duration_Total":1212.4615,"OutOfCone_Align":0.0,"OutOfCone_Appr":28.6818,"OutOfCone_FA":43.9693,"OutOfCone_Total":72.6511,"AboveClosingVel_Align":0,"AboveClosingVel_Appr":0.0,"AboveClosingVel_FA":48.9924,"AboveClosingVel_Total":48.9924,"Fuel_Align":20.227,"Fuel_Appr":8.862,"Fuel_FA":18.362,"Fuel_Total":47.451,"LatOffsetAtStart_Align":2.5559796556,"LatOffsetAtStart_Appr":0.2253375246,"LatOffsetAtStart_FA":2.7640616853,"LatOffsetAt_Dock":0.3028299853,"NoVisTime_Align":0.0,"NoVisTime_Appr":52.2474,"NoVisTime_FA":60.4291,"NoVisTime_Total":112.6765,"THCPSD_Align":0.0269170846,"THCErr_Align":13,"RHCPSD_Align":0.0028105847,"RHCErr_Align":1,"THCPSD_Appr":0.0525311858,"THCErr_Appr":30,"RHCPSD_Appr":0.0010275839,"RHCErr_Appr":0,"THCPSD_FA":0.0617760135,"THCErr_FA":42,"RHCPSD_FA":0.0111936041,"RHCErr_FA":12,"THCPSD_Total":0.0439926371,"THCErr_Total":85,"RHCPSD_Total":0.005475488,"RHCErr_Total":13,"LatOffAvg_Align":2.2369311404,"LatOffAvg_Appr":1.0686973943,"LatOffAvg_FA":0.6606882161,"LatOffAvg_Total":1.3816618659,"RollRms_Align":1.2363666022,"RollRms_Appr":3.5332708758,"RollRms_FA":2.5442082722,"RollRms_Total":2.4425864965,"YawRms_Align":0.3794907904,"YawRms_Appr":0.2774643468,"YawRms_FA":0.5375945151,"YawRms_Total":0.425076828,"PitchRms_Align":0.3221149114,"PitchRms_Appr":0.5933497003,"PitchRms_FA":0.8295553256,"PitchRms_Total":0.6134907163,"Aggressiveness_Align":0.3915689178,"Aggressiveness_Appr":0.5081426939,"Aggressiveness_FA":0.7126852945,"Aggressiveness_Total":0.5723727919,"DutyCycle_Align":0.0960067969,"DutyCycle_Appr":0.1520223152,"DutyCycle_FA":0.2405529954,"DutyCycle_Total":0.1621349446,"Workload_Align":0.0375932776,"Workload_Appr":0.0772490288,"Workload_FA":0.1714385824,"Workload_Total":0.0928016309,"THC_Align":82,"THC_Appr":93,"THC_FA":197,"THC_Total":372,"RHC_Align":6,"RHC_Appr":1,"RHC_FA":31,"RHC_Total":38,"CombJoy_Align":1,"CombJoy_Appr":0,"CombJoy_FA":10,"CombJoy_Total":11,"THCIndErr_Align":2,"THCIndErr_Appr":3,"THCIndErr_FA":2,"THCIndErr_Total":7,"RHCIndErr_Align":0,"RHCIndErr_Appr":0,"RHCIndErr_FA":6,"RHCIndErr_Total":6}
{"Flight ID":"13e0e2d715e38dd8d682e086aa5cef2b32ba2313f99510f6e5b9930a1e519266","Date":2024,"Scenario":"A002","Manually modified Phases":"No","Start_Align":52.9625,"Duration_Align":41.4368,"Start_Appr":94.3993,"Duration_Appr":340.2977,"Start_FA":434.697,"Duration_FA":214.5795,"Time_Dock":649.2765,"Duration_Total":596.314,"OutOfCone_Align":0.0,"OutOfCone_Appr":0.0,"OutOfCone_FA":0.0,"OutOfCone_Total":0.0,"AboveClosingVel_Align":0,"AboveClosingVel_Appr":0.0,"AboveClosingVel_FA":0.0,"AboveClosingVel_Total":0.0,"Fuel_Align":2.431,"Fuel_Appr":9.193,"Fuel_FA":2.958,"Fuel_Total":14.582,"LatOffsetAtStart_Align":2.1486223493,"LatOffsetAtStart_Appr":3.960995077,"LatOffsetAtStart_FA":0.1744133022,"LatOffsetAt_Dock":0.1430314651,"NoVisTime_Align":0.0,"NoVisTime_Appr":0.0,"NoVisTime_FA":0.0,"NoVisTime_Total":0.0,"THCPSD_Align":0.0556207321,"THCErr_Align":5,"RHCPSD_Align":0.0,"RHCErr_Align":0,"THCPSD_Appr":0.0341561823,"THCErr_Appr":9,"RHCPSD_Appr":0.0056350064,"RHCErr_Appr":0,"THCPSD_FA":0.0143356881,"THCErr_FA":5,"RHCPSD_FA":0.0130802067,"RHCErr_FA":1,"THCPSD_Total":0.0333457121,"THCErr_Total":19,"RHCPSD_Total":0.0071851016,"RHCErr_Total":1,"LatOffAvg_Align":2.8768223505,"LatOffAvg_Appr":0.3797584611,"LatOffAvg_FA":0.1333220836,"LatOffAvg_Total":0.4646082365,"RollRms_Align":0.3141723412,"RollRms_Appr":0.3985684202,"RollRms_FA":0.9531811713,"RollRms_Total":0.6520563975,"YawRms_Align":0.1257112565,"YawRms_Appr":0.3468358968,"YawRms_FA":0.188450938,"YawRms_Total":0.2871109494,"PitchRms_Align":0.1855801848,"PitchRms_Appr":0.2492041627,"PitchRms_FA":0.1415579249,"PitchRms_Total":0.2121322156,"Aggressiveness_Align":0.392632074,"Aggressiveness_Appr":0.5467741925,"Aggressiveness_FA":0.4483394186,"Aggressiveness_Total":0.5457905988,"DutyCycle_Align":0.1,"DutyCycle_Appr":0.1209529627,"DutyCycle_FA":0.0848601736,"DutyCycle_Total":0.1061238692,"Workload_Align":0.0392632074,"Workload_Appr":0.0661339585,"Workload_FA":0.0380461609,"Workload_Total":0.0579214101,"THC_Align":10,"THC_Appr":74,"THC_FA":21,"THC_Total":105,"RHC_Align":0,"RHC_Appr":16,"RHC_FA":18,"RHC_Total":34,"CombJoy_Align":0,"CombJoy_Appr":0,"CombJoy_FA":0,"CombJoy_Total":0,"THCIndErr_Align":0,"THCIndErr_Appr":0,"THCIndErr_FA":0,"THCIndErr_Total":0,"RHCIndErr_Align":0,"RHCIndErr_Appr":0,"RHCIndErr_FA":0,"RHCIndErr_Total":0}
{"Flight ID":"159d4b444524d73777193cb749c0dc8009eb76456fd6162990158c1521d49af7","Date":2024,"Scenario":"A002","Manually modified Phases":"No","Start_Align":391.2902,"Duration_Align":353.7999,"Start_Appr":745.0901,"Duration_Appr":320.8757,"Start_FA":1065.9658,"Duration_FA":160.1424,"Time_Dock":1226.1082,"Duration_Total":834.818,"OutOfCone_Align":50.2396,"OutOfCone_Appr":0.0,"OutOfCone_FA":0.0,"OutOfCone_Total":50.2396,"AboveClosingVel_Align":0,"AboveClosingVel_Appr":152.1808,"AboveClosingVel_FA":43.6042,"AboveClosingVel_Total":195.785,"Fuel_Align":10.909,"Fuel_Appr":8.54,"Fuel_FA":2.385,"Fuel_Total":21.834,"LatOffsetAtStart_Align":19.0687629908,"LatOffsetAtStart_Appr":0.1842959576,"LatOffsetAtStart_FA":0.0380788655,"LatOffsetAt_Dock":0.1709883037,"NoVisTime_Align":100.6645,"NoVisTime_Appr":0.0,"NoVisTime_FA":0.0,"NoVisTime_Total":100.6645,"THCPSD_Align":0.0557479627,"THCErr_Align":13,"RHCPSD_Align":0.0041528354,"RHCErr_Align":1,"THCPSD_Appr":0.0206398111,"THCErr_Appr":3,"RHCPSD_Appr":0.0180428758,"RHCErr_Appr":2,"THCPSD_FA":0.0427955496,"THCErr_FA":21,"RHCPSD_FA":0.0,"RHCErr_FA":0,"THCPSD_Total":0.0411337936,"THCErr_Total":37,"RHCPSD_Total":0.0078171602,"RHCErr_Total":3,"LatOffAvg_Align":6.7549217762,"LatOffAvg_Appr":0.1186244355,"LatOffAvg_FA":0.1909097421,"LatOffAvg_Total":2.946589491,"RollRms_Align":0.8971514102,"RollRms_Appr":1.4121486638,"RollRms_FA":0.3427642131,"RollRms_Total":1.0630255848,"YawRms_Align":0.7222775271,"YawRms_Appr":0.1869271838,"YawRms_FA":0.6244378706,"YawRms_Total":0.556243502,"PitchRms_Align":0.1966032586,"PitchRms_Appr":0.1947923887,"PitchRms_FA":0.5153518197,"PitchRms_Total":0.2861682001,"Aggressiveness_Align":0.5925972498,"Aggressiveness_Appr":0.5563228493,"Aggressiveness_FA":0.5803392968,"Aggressiveness_Total":0.6346674625,"DutyCycle_Align":0.166277713,"DutyCycle_Appr":0.0998068255,"DutyCycle_FA":0.2116129032,"DutyCycle_Total":0.1491835725,"Workload_Align":0.0985357154,"Workload_Appr":0.0555248175,"Workload_FA":0.1228072835,"Workload_Total":0.0946819594,"THC_Align":130,"THC_Appr":35,"THC_FA":80,"THC_Total":245,"RHC_Align":10,"RHC_Appr":34,"RHC_FA":0,"RHC_Total":44,"CombJoy_Align":0,"CombJoy_Appr":0,"CombJoy_FA":0,"CombJoy_Total":0,"THCIndErr_Align":1,"THCIndErr_Appr":0,"THCIndErr_FA":0,"THCIndErr_Total":1,"RHCIndErr_Align":1,"RHCIndErr_Appr":2,"RHCIndErr_FA":0,"RHCIndErr_Total":3}
{"Flight ID":"1e2cb165bebabe1bfe4292fb80cdbc9135fc0234c3880595694b00b4d476ac0f","Date":2024,"Scenario":"A002","Manually modified Phases":"No","Start_Align":42.8442,"Duration_Align":3.5373,"Start_Appr":46.3815,"Duration_Appr":356.9552,"Start_FA":403.3367,"Duration_FA":178.8583,"Time_Dock":582.195,"Duration_Total":539.3508,"OutOfCone_Align":0.0,"OutOfCone_Appr":0.0,"OutOfCone_FA":0.0,"OutOfCone_Total":0.0,"AboveClosingVel_Align":0,"AboveClosingVel_Appr":52.1792,"AboveClosingVel_FA":0.0,"AboveClosingVel_Total":52.1792,"Fuel_Align":0.321,"Fuel_Appr":8.509,"Fuel_FA":2.967,"Fuel_Total":11.797,"LatOffsetAtStart_Align":2.070082607,"LatOffsetAtStart_Appr":2.0961023353,"LatOffsetAtStart_FA":0.2057984451,"LatOffsetAt_Dock":0.0711758386,"NoVisTime_Align":0.0,"NoVisTime_Appr":0.0,"NoVisTime_FA":0.0,"NoVisTime_Total":0.0,"THCPSD_Align":0.013634189,"THCErr_Align":0,"RHCPSD_Align":0.0,"RHCErr_Align":0,"THCPSD_Appr":0.0429654199,"THCErr_Appr":11,"RHCPSD_Appr":0.00353534,"RHCErr_Appr":0,"THCPSD_FA":0.0281771934,"THCErr_FA":6,"RHCPSD_FA":0.0071584463,"RHCErr_FA":1,"THCPSD_Total":0.0349646815,"THCErr_Total":17,"RHCPSD_Total":0.0042715896,"RHCErr_Total":1,"LatOffAvg_Align":2.0821611034,"LatOffAvg_Appr":0.4165537306,"LatOffAvg_FA":0.1410877407,"LatOffAvg_Total":0.3360988416,"RollRms_Align":0.312,"RollRms_Appr":0.7422606135,"RollRms_FA":2.0986199597,"RollRms_Total":1.3512833442,"YawRms_Align":0.124,"YawRms_Appr":0.3129101537,"YawRms_FA":0.2416306129,"YawRms_Total":0.2902799443,"PitchRms_Align":0.2116631619,"PitchRms_Appr":0.3601067322,"PitchRms_FA":0.1774101824,"PitchRms_Total":0.3107262605,"Aggressiveness_Align":0.2785459681,"Aggressiveness_Appr":0.5192475466,"Aggressiveness_FA":0.4007477703,"Aggressiveness_Total":0.5024726064,"DutyCycle_Align":0.1764705882,"DutyCycle_Appr":0.115250291,"DutyCycle_FA":0.0882694541,"DutyCycle_Total":0.1063174114,"Workload_Align":0.0491551708,"Workload_Appr":0.0598434309,"Workload_FA":0.0353737869,"Workload_Total":0.0534215868,"THC_Align":2,"THC_Appr":80,"THC_FA":28,"THC_Total":110,"RHC_Align":0,"RHC_Appr":14,"RHC_FA":7,"RHC_Total":21,"CombJoy_Align":0,"CombJoy_Appr":1,"CombJoy_FA":1,"CombJoy_Total":2,"THCIndErr_Align":0,"THCIndErr_Appr":0,"THCIndErr_FA":0,"THCIndErr_Total":0,"RHCIndErr_Align":0,"RHCIndErr_Appr":0,"RHCIndErr_FA":1,"RHCIndErr_Total":1}
{"Flight ID":"1eb5ba21abe981c33cb80bcbab7ceb39ebc12b4748b81d5d14be0bd489c1f69f","Date":2024,"Scenario":"A002","Manually modified Phases":"No","Start_Align":63.6508,"Duration_Align":46.1947,"Start_Appr":109.8455,"Duration_Appr":358.9113,"Start_FA":468.7568,"Duration_FA":195.8897,"Time_Dock":664.6465,"Duration_Total":600.9957,"OutOfCone_Align":0.0,"OutOfCone_Appr":0.0,"OutOfCone_FA":0.0,"OutOfCone_Total":0.0,"AboveClosingVel_Align":0,"AboveClosingVel_Appr":0.0,"AboveClosingVel_FA":0.0,"AboveClosingVel_Total":0.0,"Fuel_Align":0.896,"Fuel_Appr":5.145,"Fuel_FA":4.276,"Fuel_Total":10.317,"LatOffsetAtStart_Align":2.2502910923,"LatOffsetAtStart_Appr":0.3837095256,"LatOffsetAtStart_FA":0.2289541439,"LatOffsetAt_Dock":0.1422251736,"NoVisTime_Align":0.0,"NoVisTime_Appr":0.0,"NoVisTime_FA":0.0,"NoVisTime_Total":0.0,"THCPSD_Align":0.0457670953,"THCErr_Align":0,"RHCPSD_Align":0.0,"RHCErr_Align":0,"THCPSD_Appr":0.011255716,"THCErr_Appr":1,"RHCPSD_Appr":0.0052933569,"RHCErr_Appr":8,"THCPSD_FA":0.0054770284,"THCErr_FA":0,"RHCPSD_FA":0.0245249606,"RHCErr_FA":13,"THCPSD_Total":0.0122280666,"THCErr_Total":1,"RHCPSD_Total":0.0097595399,"RHCErr_Total":21,"LatOffAvg_Align":1.3806608814,"LatOffAvg_Appr":0.2214844275,"LatOffAvg_FA":0.1887184846,"LatOffAvg_Total":0.3011666055,"RollRms_Align":0.3136087753,"RollRms_Appr":0.9521919198,"RollRms_FA":2.2088456281,"RollRms_Total":1.4595146158,"YawRms_Align":0.123,"YawRms_Appr":0.4181984305,"YawRms_FA":0.5402227611,"YawRms_Total":0.4475723472,"PitchRms_Align":0.1249217052,"PitchRms_Appr":0.2320032296,"PitchRms_FA":0.2022516882,"PitchRms_Total":0.2160189108,"Aggressiveness_Align":0.4910448904,"Aggressiveness_Appr":0.4429579094,"Aggressiveness_FA":0.4079651669,"Aggressiveness_Total":0.503051683,"DutyCycle_Align":0.1531531532,"DutyCycle_Appr":0.0920821114,"DutyCycle_FA":0.091007584,"DutyCycle_Total":0.0964912281,"Workload_Align":0.0752050733,"Workload_Appr":0.0407884996,"Workload_FA":0.0371279242,"Workload_Total":0.0485400747,"THC_Align":17,"THC_Appr":54,"THC_FA":10,"THC_Total":81,"RHC_Align":0,"RHC_Appr":20,"RHC_FA":31,"RHC_Total":51,"CombJoy_Align":0,"CombJoy_Appr":0,"CombJoy_FA":0,"CombJoy_Total":0,"THCIndErr_Align":0,"THCIndErr_Appr":0,"THCIndErr_FA":0,"THCIndErr_Total":0,"RHCIndErr_Align":0,"RHCIndErr_Appr":6,"RHCIndErr_FA":7,"RHCIndErr_Total":13}
{"Flight ID":"2faf884dcd6656909b1a9a15311c1b6f04822946ac91472eb7c0fdbd1c7646c3","Date":2024,"Scenario":"A002","Manually modified Phases":"No","Start_Align":197.3116,"Duration_Align":131.5406,"Start_Appr":328.8522,"Duration_Appr":284.5058,"Start_FA":613.358,"Duration_FA":177.9408,"Time_Dock":791.2988,"Duration_Total":593.9872,"OutOfCone_Align":0.0,"OutOfCone_Appr":0.0,"OutOfCone_FA":0.0,"OutOfCone_Total":0.0,"AboveClosingVel_Align":0,"AboveClosingVel_Appr":96.0554,"AboveClosingVel_FA":0.0,"AboveClosingVel_Total":96.0554,"Fuel_Align":3.438,"Fuel_Appr":5.924,"Fuel_FA":4.48,"Fuel_Total":13.842,"LatOffsetAtStart_Align":5.9754585598,"LatOffsetAtStart_Appr":0.211567956,"LatOffsetAtStart_FA":0.1586474078,"LatOffsetAt_Dock":0.0953414915,"NoVisTime_Align":0.0,"NoVisTime_Appr":0.0,"NoVisTime_FA":0.0,"NoVisTime_Total":0.0,"THCPSD_Align":0.05232809,"THCErr_Align":7,"RHCPSD_Align":0.0,"RHCErr_Align":0,"THCPSD_Appr":0.0257818776,"THCErr_Appr":7,"RHCPSD_Appr":0.0070817242,"RHCErr_Appr":0,"THCPSD_FA":0.0006074119,"THCErr_FA":1,"RHCPSD_FA":0.0240434791,"RHCErr_FA":4,"THCPSD_Total":0.0288031311,"THCErr_Total":15,"RHCPSD_Total":0.0088166893,"RHCErr_Total":4,"LatOffAvg_Align":1.9667521695,"LatOffAvg_Appr":0.2232676618,"LatOffAvg_FA":0.1696788598,"LatOffAvg_Total":0.5925591095,"RollRms_Align":0.7201288211,"RollRms_Appr":2.0328359262,"RollRms_FA":1.4619903058,"RollRms_Total":1.6548692186,"YawRms_Align":0.2801735407,"YawRms_Appr":1.0383512161,"YawRms_FA":0.4757426671,"YawRms_Total":0.776598196,"PitchRms_Align":0.2202068213,"PitchRms_Appr":0.5409037197,"PitchRms_FA":0.3927669147,"PitchRms_Total":0.4442649311,"Aggressiveness_Align":0.3739338095,"Aggressiveness_Appr":0.5113550243,"Aggressiveness_FA":0.4282879118,"Aggressiveness_Total":0.5280881753,"DutyCycle_Align":0.0930599369,"DutyCycle_Appr":0.1160261059,"DutyCycle_FA":0.0992990654,"DutyCycle_Total":0.1056117114,"Workload_Align":0.0347982567,"Workload_Appr":0.0593305322,"Workload_FA":0.0425285894,"Workload_Total":0.055772296,"THC_Align":28,"THC_Appr":61,"THC_FA":8,"THC_Total":97,"RHC_Align":0,"RHC_Appr":13,"RHC_FA":22,"RHC_Total":35,"CombJoy_Align":0,"CombJoy_Appr":0,"CombJoy_FA":0,"CombJoy_Total":0,"THCIndErr_Align":0,"THCIndErr_Appr":0,"THCIndErr_FA":0,"THCIndErr_Total":0,"RHCIndErr_Align":0,"RHCIndErr_Appr":0,"RHCIndErr_FA":0,"RHCIndErr_Total":0}
{"Flight ID":"3149f18726f3d58ee302de0e7d183c1a6b8d65310361312786d4bd58052fc994","Date":2024,"Scenario":"A002","Manually modified Phases":"No","Start_Align":133.6631,"Duration_Align":110.8745,"Start_Appr":244.5376,"Duration_Appr":466.84,"Start_FA":711.3776,"Duration_FA":235.729,"Time_Dock":947.1066,"Duration_Total":813.4435,"OutOfCone_Align":0.0,"OutOfCone_Appr":0.0,"OutOfCone_FA":0.0,"OutOfCone_Total":0.0,"AboveClosingVel_Align":0,"AboveClosingVel_Appr":0.0,"AboveClosingVel_FA":0.0,"AboveClosingVel_Total":0.0,"Fuel_Align":1.155,"Fuel_Appr":11.679,"Fuel_FA":2.383,"Fuel_Total":15.217,"LatOffsetAtStart_Align":3.5882837123,"LatOffsetAtStart_Appr":1.5067375352,"LatOffsetAtStart_FA":0.0769415362,"LatOffsetAt_Dock":0.0725672102,"NoVisTime_Align":0.0,"NoVisTime_Appr":0.0,"NoVisTime_FA":0.0,"NoVisTime_Total":0.0,"THCPSD_Align":0.02485265,"THCErr_Align":1,"RHCPSD_Align":0.0,"RHCErr_Align":0,"THCPSD_Appr":0.0316945369,"THCErr_Appr":18,"RHCPSD_Appr":0.0081047992,"RHCErr_Appr":3,"THCPSD_FA":0.0051342635,"THCErr_FA":1,"RHCPSD_FA":0.0068348867,"RHCErr_FA":2,"THCPSD_Total":0.0262325984,"THCErr_Total":20,"RHCPSD_Total":0.0069740898,"RHCErr_Total":5,"LatOffAvg_Align":3.0185952992,"LatOffAvg_Appr":0.2701400369,"LatOffAvg_FA":0.0772903906,"LatOffAvg_Total":0.5872926121,"RollRms_Align":0.5239375214,"RollRms_Appr":1.9472471251,"RollRms_FA":2.1496348566,"RollRms_Total":1.885203133,"YawRms_Align":0.0977972335,"YawRms_Appr":0.6014017487,"YawRms_FA":0.2918160709,"YawRms_Total":0.4838461714,"PitchRms_Align":0.1354786141,"PitchRms_Appr":0.6486221521,"PitchRms_FA":0.174193855,"PitchRms_Total":0.5034501472,"Aggressiveness_Align":0.4310403137,"Aggressiveness_Appr":0.5127772218,"Aggressiveness_FA":0.2945305299,"Aggressiveness_Total":0.487133857,"DutyCycle_Align":0.1071428571,"DutyCycle_Appr":0.1288751107,"DutyCycle_FA":0.0636042403,"DutyCycle_Total":0.1068332483,"Workload_Align":0.0461828908,"Workload_Appr":0.0660842212,"Workload_FA":0.0187333906,"Workload_Total":0.0520420923,"THC_Align":28,"THC_Appr":104,"THC_FA":25,"THC_Total":157,"RHC_Align":0,"RHC_Appr":20,"RHC_FA":5,"RHC_Total":25,"CombJoy_Align":0,"CombJoy_Appr":0,"CombJoy_FA":0,"CombJoy_Total":0,"THCIndErr_Align":0,"THCIndErr_Appr":4,"THCIndErr_FA":0,"THCIndErr_Total":4,"RHCIndErr_Align":0,"RHCIndErr_Appr":0,"RHCIndErr_FA":0,"RHCIndErr_Total":0}
{"Flight ID":"339dc94e8f5d3e72095b3540844c76896d81da04a754edb68c603133bceb1e9f","Date":2024,"Scenario":"A002","Manually modified Phases":"No","Start_Align":119.592,"Duration_Align":230.4306,"Start_Appr":350.0226,"Duration_Appr":220.9875,"Start_FA":571.0101,"Duration_FA":143.3425,"Time_Dock":714.3526,"Duration_Total":594.7606,"OutOfCone_Align":0.0,"OutOfCone_Appr":0.0,"OutOfCone_FA":0.0,"OutOfCone_Total":0.0,"AboveClosingVel_Align":0,"AboveClosingVel_Appr":135.5137,"AboveClosingVel_FA":55.4958,"AboveClosingVel_Total":191.0095,"Fuel_Align":7.05,"Fuel_Appr":2.354,"Fuel_FA":10.314,"Fuel_Total":19.718,"LatOffsetAtStart_Align":3.2116383669,"LatOffsetAtStart_Appr":0.2518590876,"LatOffsetAtStart_FA":0.0349857114,"LatOffsetAt_Dock":0.0296141858,"NoVisTime_Align":0.0,"NoVisTime_Appr":0.0,"NoVisTime_FA":9.9892,"NoVisTime_Total":9.9892,"THCPSD_Align":0.0737249872,"THCErr_Align":5,"RHCPSD_Align":0.0,"RHCErr_Align":0,"THCPSD_Appr":0.0210364083,"THCErr_Appr":2,"RHCPSD_Appr":0.0,"RHCErr_Appr":2,"THCPSD_FA":0.0642712226,"THCErr_FA":3,"RHCPSD_FA":0.0227012265,"RHCErr_FA":6,"THCPSD_Total":0.0486916396,"THCErr_Total":10,"RHCPSD_Total":0.0077469081,"RHCErr_Total":8,"LatOffAvg_Align":1.1270960865,"LatOffAvg_Appr":0.189126252,"LatOffAvg_FA":0.2417227739,"LatOffAvg_Total":0.5643074836,"RollRms_Align":0.3303764732,"RollRms_Appr":0.8380700616,"RollRms_FA":0.8380308522,"RollRms_Total":0.6877802891,"YawRms_Align":0.1009903396,"YawRms_Appr":0.6600873656,"YawRms_FA":0.7491354203,"YawRms_Total":0.5489321828,"PitchRms_Align":0.1978943507,"PitchRms_Appr":1.0428822396,"PitchRms_FA":1.3309428759,"PitchRms_Total":0.919952529,"Aggressiveness_Align":0.5648969797,"Aggressiveness_Appr":0.476774762,"Aggressiveness_FA":0.771358799,"Aggressiveness_Total":0.6471938451,"DutyCycle_Align":0.1785392245,"DutyCycle_Appr":0.0876865672,"DutyCycle_FA":0.2369186047,"DutyCycle_Total":0.1582432903,"Workload_Align":0.1008562687,"Workload_Appr":0.0418067422,"Workload_FA":0.1827492503,"Workload_Total":0.1024140835,"THC_Align":106,"THC_Appr":47,"THC_FA":45,"THC_Total":198,"RHC_Align":0,"RHC_Appr":3,"RHC_FA":34,"RHC_Total":37,"CombJoy_Align":0,"CombJoy_Appr":0,"CombJoy_FA":0,"CombJoy_Total":0,"THCIndErr_Align":0,"THCIndErr_Appr":0,"THCIndErr_FA":0,"THCIndErr_Total":0,"RHCIndErr_Align":0,"RHCIndErr_Appr":2,"RHCIndErr_FA":5,"RHCIndErr_Total":7}
{"Flight ID":"3686dc66cb6e1b98deef678c6a770dc78867131b5d99d381e176d9e299d8a4f5","Date":2024,"Scenario":"A002","Manually modified Phases":"No","Start_Align":127.0303,"Duration_Align":19.5617,"Start_Appr":146.592,"Duration_Appr":313.8604,"Start_FA":460.4524,"Duration_FA":189.1407,"Time_Dock":649.5931,"Duration_Total":522.5628,"OutOfCone_Align":0.0,"OutOfCone_Appr":0.0,"OutOfCone_FA":0.0,"OutOfCone_Total":0.0,"AboveClosingVel_Align":0,"AboveClosingVel_Appr":6.9895,"AboveClosingVel_FA":0.0,"AboveClosingVel_Total":6.9895,"Fuel_Align":0.474,"Fuel_Appr":6.715,"Fuel_FA":1.226,"Fuel_Total":8.415,"LatOffsetAtStart_Align":3.4040975309,"LatOffsetAtStart_Appr":3.5806214544,"LatOffsetAtStart_FA":0.4653955307,"LatOffsetAt_Dock":0.149966663,"NoVisTime_Align":0.0,"NoVisTime_Appr":0.0,"NoVisTime_FA":0.0,"NoVisTime_Total":0.0,"THCPSD_Align":0.0542985026,"THCErr_Align":0,"RHCPSD_Align":0.0,"RHCErr_Align":0,"THCPSD_Appr":0.0285923719,"THCErr_Appr":11,"RHCPSD_Appr":0.0002296436,"RHCErr_Appr":2,"THCPSD_FA":0.0145512289,"THCErr_FA":2,"RHCPSD_FA":0.0,"RHCErr_FA":0,"THCPSD_Total":0.0302879458,"THCErr_Total":13,"RHCPSD_Total":0.006098007,"RHCErr_Total":2,"LatOffAvg_Align":3.5312577353,"LatOffAvg_Appr":0.7234141866,"LatOffAvg_FA":0.1573555196,"LatOffAvg_Total":0.6230274183,"RollRms_Align":0.3060734337,"RollRms_Appr":0.792728634,"RollRms_FA":1.0071461916,"RollRms_Total":0.8650669705,"YawRms_Align":0.1236335956,"YawRms_Appr":0.4258839454,"YawRms_FA":0.2886779891,"YawRms_Total":0.3736900535,"PitchRms_Align":0.1889281075,"PitchRms_Appr":0.5842894557,"PitchRms_FA":0.169583505,"PitchRms_Total":0.465481678,"Aggressiveness_Align":0.4858836051,"Aggressiveness_Appr":0.530610328,"Aggressiveness_FA":0.3036327552,"Aggressiveness_Total":0.489312732,"DutyCycle_Align":0.2553191489,"DutyCycle_Appr":0.1104497354,"DutyCycle_FA":0.0591456736,"DutyCycle_Total":0.0968638349,"Workload_Align":0.1240553885,"Workload_Appr":0.0586057704,"Workload_FA":0.0179585638,"Workload_Total":0.0473967077,"THC_Align":12,"THC_Appr":67,"THC_FA":25,"THC_Total":104,"RHC_Align":0,"RHC_Appr":11,"RHC_FA":0,"RHC_Total":11,"CombJoy_Align":0,"CombJoy_Appr":2,"CombJoy_FA":0,"CombJoy_Total":2,"THCIndErr_Align":0,"THCIndErr_Appr":0,"THCIndErr_FA":0,"THCIndErr_Total":0,"RHCIndErr_Align":0,"RHCIndErr_Appr":2,"RHCIndErr_FA":0,"RHCIndErr_Total":2}
{"Flight ID":"3c65af4122be77446741ab113fcaee0578cda62d245ab78ec8a6233334a10862","Date":2024,"Scenario":"A002","Manually modified Phases":"No","Start_Align":47.5931,"Duration_Align":15.1336,"Start_Appr":62.7267,"Duration_Appr":244.0412,"Start_FA":306.7679,"Duration_FA":174.5859,"Time_Dock":481.3538,"Duration_Total":433.7607,"OutOfCone_Align":0.0,"OutOfCone_Appr":0.0,"OutOfCone_FA":0.0,"OutOfCone_Total":0.0,"AboveClosingVel_Align":0,"AboveClosingVel_Appr":179.3113,"AboveClosingVel_FA":1.4636,"AboveClosingVel_Total":180.7749,"Fuel_Align":1.473,"Fuel_Appr":4.719,"Fuel_FA":2.303,"Fuel_Total":8.495,"LatOffsetAtStart_Align":2.104962945,"LatOffsetAtStart_Appr":1.5440573176,"LatOffsetAtStart_FA":0.1617559891,"LatOffsetAt_Dock":0.1941777536,"NoVisTime_Align":0.0,"NoVisTime_Appr":0.0,"NoVisTime_FA":0.0,"NoVisTime_Total":0.0,"THCPSD_Align":0.079716837,"THCErr_Align":2,"RHCPSD_Align":0.0,"RHCErr_Align":0,"THCPSD_Appr":0.0272566839,"THCErr_Appr":4,"RHCPSD_Appr":0.0045422527,"RHCErr_Appr":0,"THCPSD_FA":0.0080777004,"THCErr_FA":2,"RHCPSD_FA":0.0086760232,"RHCErr_FA":1,"THCPSD_Total":0.0207838601,"THCErr_Total":8,"RHCPSD_Total":0.0053761633,"RHCErr_Total":1,"LatOffAvg_Align":1.9653875135,"LatOffAvg_Appr":0.2653727848,"LatOffAvg_FA":0.1924005627,"LatOffAvg_Total":0.2964875533,"RollRms_Align":0.3263196811,"RollRms_Appr":0.6093125095,"RollRms_FA":0.1811738591,"RollRms_Total":0.4756281276,"YawRms_Align":0.1321765631,"YawRms_Appr":0.3032745519,"YawRms_FA":0.2244725911,"YawRms_Total":0.269560254,"PitchRms_Align":0.2018237058,"PitchRms_Appr":0.1093317296,"PitchRms_FA":0.2609756782,"PitchRms_Total":0.1883637821,"Aggressiveness_Align":0.603654775,"Aggressiveness_Appr":0.4474597351,"Aggressiveness_FA":0.3508768088,"Aggressiveness_Total":0.4623655252,"DutyCycle_Align":0.2191780822,"DutyCycle_Appr":0.0793787748,"DutyCycle_FA":0.0558252427,"DutyCycle_Total":0.0744163424,"Workload_Align":0.1323078959,"Workload_Appr":0.0355188055,"Workload_FA":0.019587783,"Workload_Total":0.0344075512,"THC_Align":10,"THC_Appr":49,"THC_FA":21,"THC_Total":80,"RHC_Align":0,"RHC_Appr":2,"RHC_FA":6,"RHC_Total":8,"CombJoy_Align":0,"CombJoy_Appr":0,"CombJoy_FA":0,"CombJoy_Total":0,"THCIndErr_Align":2,"THCIndErr_Appr":2,"THCIndErr_FA":2,"THCIndErr_Total":6,"RHCIndErr_Align":0,"RHCIndErr_Appr":0,"RHCIndErr_FA":1,"RHCIndErr_Total":1}
{"Flight ID":"3e946c7432fa1351e3c430b68d0ebc01d0c096d735b2f03ad042b9ddb76f4e63","Date":2024,"Scenario":"A002","Manually modified Phases":"No","Start_Align":53.2818,"Duration_Align":8.6561,"Start_Appr":61.9379,"Duration_Appr":336.8619,"Start_FA":398.7998,"Duration_FA":249.809,"Time_Dock":648.6088,"Duration_Total":595.327,"OutOfCone_Align":0.0,"OutOfCone_Appr":0.0,"OutOfCone_FA":0.0,"OutOfCone_Total":0.0,"AboveClosingVel_Align":0,"AboveClosingVel_Appr":0.0,"AboveClosingVel_FA":0.0,"AboveClosingVel_Total":0.0,"Fuel_Align":0.612,"Fuel_Appr":8.401,"Fuel_FA":14.195,"Fuel_Total":23.208,"LatOffsetAtStart_Align":2.1516033556,"LatOffsetAtStart_Appr":2.0153572884,"LatOffsetAtStart_FA":0.2477821624,"LatOffsetAt_Dock":0.2330257497,"NoVisTime_Align":0.0,"NoVisTime_Appr":0.0,"NoVisTime_FA":0.0,"NoVisTime_Total":0.0,"THCPSD_Align":0.0676638441,"THCErr_Align":0,"RHCPSD_Align":0.0,"RHCErr_Align":0,"THCPSD_Appr":0.0337927683,"THCErr_Appr":7,"RHCPSD_Appr":0.0014842131,"RHCErr_Appr":0,"THCPSD_FA":0.0051038042,"THCErr_FA":0,"RHCPSD_FA":0.0283455717,"RHCErr_FA":39,"THCPSD_Total":0.0222984182,"THCErr_Total":7,"RHCPSD_Total":0.0158393845,"RHCErr_Total":39,"LatOffAvg_Align":2.099121393,"LatOffAvg_Appr":0.2472867916,"LatOffAvg_FA":0.2191729611,"LatOffAvg_Total":0.2626113843,"RollRms_Align":0.3147202083,"RollRms_Appr":0.6055439744,"RollRms_FA":0.4921379268,"RollRms_Total":0.5569895065,"YawRms_Align":0.1294753148,"YawRms_Appr":0.7729583871,"YawRms_FA":0.551314182,"YawRms_Total":0.6819902078,"PitchRms_Align":0.2106434021,"PitchRms_Appr":0.8761505208,"PitchRms_FA":0.7534550008,"PitchRms_Total":0.8201640076,"Aggressiveness_Align":0.4116966696,"Aggressiveness_Appr":0.530847102,"Aggressiveness_FA":0.4934209951,"Aggressiveness_Total":0.5739257533,"DutyCycle_Align":0.1666666667,"DutyCycle_Appr":0.1308933002,"DutyCycle_FA":0.1706710853,"DutyCycle_Total":0.147850402,"Workload_Align":0.0686161116,"Workload_Appr":0.0694843291,"Workload_FA":0.0842126968,"Workload_Total":0.0848551533,"THC_Align":4,"THC_Appr":93,"THC_FA":17,"THC_Total":114,"RHC_Align":0,"RHC_Appr":4,"RHC_FA":63,"RHC_Total":67,"CombJoy_Align":0,"CombJoy_Appr":0,"CombJoy_FA":0,"CombJoy_Total":0,"THCIndErr_Align":0,"THCIndErr_Appr":0,"THCIndErr_FA":0,"THCIndErr_Total":0,"RHCIndErr_Align":0,"RHCIndErr_Appr":0,"RHCIndErr_FA":12,"RHCIndErr_Total":12}
{"Flight ID":"3e99bbdc8eeaafe2dcc8ce725de262ed768f65f91a76c4acf76e964ce9d2601a","Date":2024,"Scenario":"A002","Manually modified Phases":"No","Start_Align":77.7384,"Duration_Align":62.2343,"Start_Appr":139.9727,"Duration_Appr":331.8287,"Start_FA":471.8014,"Duration_FA":238.5062,"Time_Dock":710.3076,"Duration_Total":632.5692,"OutOfCone_Align":0.0,"OutOfCone_Appr":0.0,"OutOfCone_FA":0.0,"OutOfCone_Total":0.0,"AboveClosingVel_Align":0,"AboveClosingVel_Appr":55.6034,"AboveClosingVel_FA":2.078,"AboveClosingVel_Total":57.6814,"Fuel_Align":7.478,"Fuel_Appr":29.954,"Fuel_FA":7.576,"Fuel_Total":45.008,"LatOffsetAtStart_Align":2.4179569889,"LatOffsetAtStart_Appr":1.5059684592,"LatOffsetAtStart_FA":1.0297232638,"LatOffsetAt_Dock":0.3725815347,"NoVisTime_Align":0.0,"NoVisTime_Appr":0.0,"NoVisTime_FA":0.0,"NoVisTime_Total":0.0,"THCPSD_Align":0.1032607786,"THCErr_Align":3,"RHCPSD_Align":0.0,"RHCErr_Align":0,"THCPSD_Appr":0.0976118794,"THCErr_Appr":25,"RHCPSD_Appr":0.0,"RHCErr_Appr":0,"THCPSD_FA":0.0629939339,"THCErr_FA":27,"RHCPSD_FA":0.0,"RHCErr_FA":0,"THCPSD_Total":0.0872008817,"THCErr_Total":55,"RHCPSD_Total":0.0,"RHCErr_Total":0,"LatOffAvg_Align":1.7143250249,"LatOffAvg_Appr":1.2777318767,"LatOffAvg_FA":0.7172651355,"LatOffAvg_Total":1.1102422911,"RollRms_Align":0.5246285851,"RollRms_Appr":1.4183890095,"RollRms_FA":2.8597910579,"RollRms_Total":2.0389315141,"YawRms_Align":0.128019672,"YawRms_Appr":1.0616681153,"YawRms_FA":2.7292065611,"YawRms_Total":1.8418676304,"PitchRms_Align":0.3063113596,"PitchRms_Appr":1.3761617681,"PitchRms_FA":2.9779900085,"PitchRms_Total":2.0824386778,"Aggressiveness_Align":0.5511317849,"Aggressiveness_Appr":0.4126284364,"Aggressiveness_FA":0.5364461602,"Aggressiveness_Total":0.4847198251,"DutyCycle_Align":0.1589403974,"DutyCycle_Appr":0.1187072716,"DutyCycle_FA":0.1982608696,"DutyCycle_Total":0.1522378308,"Workload_Align":0.0875971049,"Workload_Appr":0.0489819959,"Workload_FA":0.1063562822,"Workload_Total":0.0737926947,"THC_Align":25,"THC_Appr":82,"THC_FA":113,"THC_Total":220,"RHC_Align":0,"RHC_Appr":0,"RHC_FA":0,"RHC_Total":0,"CombJoy_Align":0,"CombJoy_Appr":0,"CombJoy_FA":0,"CombJoy_Total":0,"THCIndErr_Align":0,"THCIndErr_Appr":10,"THCIndErr_FA":8,"THCIndErr_Total":18,"RHCIndErr_Align":0,"RHCIndErr_Appr":0,"RHCIndErr_FA":0,"RHCIndErr_Total":0}
{"Flight ID":"42d69a59ba48563e7046995f0457129e0d522ef92c23011eaaf74ba9e572508b","Date":2024,"Scenario":"A002","Manually modified Phases":"No","Start_Align":34.6151,"Duration_Align":126.8783,"Start_Appr":161.4934,"Duration_Appr":303.5195,"Start_FA":465.0129,"Duration_FA":788.553,"Time_Dock":1253.5659,"Duration_Total":1218.9508,"OutOfCone_Align":0.0,"OutOfCone_Appr":0.0,"OutOfCone_FA":14.5787,"OutOfCone_Total":14.5787,"AboveClosingVel_Align":0,"AboveClosingVel_Appr":65.9776,"AboveClosingVel_FA":0.0,"AboveClosingVel_Total":65.9776,"Fuel_Align":1.067,"Fuel_Appr":3.844,"Fuel_FA":21.141,"Fuel_Total":26.052,"LatOffsetAtStart_Align":2.0152667317,"LatOffsetAtStart_Appr":0.1974284681,"LatOffsetAtStart_FA":0.2067873304,"LatOffsetAt_Dock":0.0261725047,"NoVisTime_Align":0.0,"NoVisTime_Appr":0.0,"NoVisTime_FA":183.8586,"NoVisTime_Total":183.8586,"THCPSD_Align":0.0214142556,"THCErr_Align":0,"RHCPSD_Align":0.0,"RHCErr_Align":0,"THCPSD_Appr":0.0377231726,"THCErr_Appr":11,"RHCPSD_Appr":0.0,"RHCErr_Appr":0,"THCPSD_FA":0.0365260166,"THCErr_FA":30,"RHCPSD_FA":0.0044868096,"RHCErr_FA":21,"THCPSD_Total":0.0352284091,"THCErr_Total":41,"RHCPSD_Total":0.0029078875,"RHCErr_Total":21,"LatOffAvg_Align":1.9789718793,"LatOffAvg_Appr":0.2994940202,"LatOffAvg_FA":0.4578649966,"LatOffAvg_Total":0.5777184866,"RollRms_Align":0.3141205144,"RollRms_Appr":0.2194076209,"RollRms_FA":2.5097386177,"RollRms_Total":2.0240495833,"YawRms_Align":0.1210612759,"YawRms_Appr":0.4014097435,"YawRms_FA":2.5770387553,"YawRms_Total":2.0826683243,"PitchRms_Align":0.1728408168,"PitchRms_Appr":1.1707661655,"PitchRms_FA":2.600675334,"PitchRms_Total":2.1722809232,"Aggressiveness_Align":0.3567131806,"Aggressiveness_Appr":0.47735094,"Aggressiveness_FA":0.4781823609,"Aggressiveness_Total":0.4962186921,"DutyCycle_Align":0.0845528455,"DutyCycle_Appr":0.1246575342,"DutyCycle_FA":0.1181268087,"DutyCycle_Total":0.1162355344,"Workload_Align":0.0301611145,"Workload_Appr":0.0595053912,"Workload_FA":0.0564861563,"Workload_Total":0.0576782448,"THC_Align":25,"THC_Appr":88,"THC_FA":163,"THC_Total":276,"RHC_Align":0,"RHC_Appr":0,"RHC_FA":37,"RHC_Total":37,"CombJoy_Align":0,"CombJoy_Appr":0,"CombJoy_FA":1,"CombJoy_Total":1,"THCIndErr_Align":0,"THCIndErr_Appr":0,"THCIndErr_FA":1,"THCIndErr_Total":1,"RHCIndErr_Align":0,"RHCIndErr_Appr":0,"RHCIndErr_FA":8,"RHCIndErr_Total":8}
{"Flight ID":"441b978334e336297a7e2ec792ad169825586bff80a38a6c50f302c632fd3366","Date":2024,"Scenario":"A002","Manually modified Phases":"No","Start_Align":139.0536,"Duration_Align":84.2476,"Start_Appr":223.3012,"Duration_Appr":364.4708,"Start_FA":587.772,"Duration_FA":174.2974,"Time_Dock":762.0694,"Duration_Total":623.0158,"OutOfCone_Align":0.0,"OutOfCone_Appr":0.0,"OutOfCone_FA":0.0,"OutOfCone_Total":0.0,"AboveClosingVel_Align":0,"AboveClosingVel_Appr":0.0,"AboveClosingVel_FA":0.0,"AboveClosingVel_Total":0.0,"Fuel_Align":2.294,"Fuel_Appr":7.649,"Fuel_FA":1.109,"Fuel_Total":11.052,"LatOffsetAtStart_Align":3.5923529893,"LatOffsetAtStart_Appr":0.6718630813,"LatOffsetAtStart_FA":0.1754137965,"LatOffsetAt_Dock":0.0917823512,"NoVisTime_Align":0.0,"NoVisTime_Appr":0.0,"NoVisTime_FA":0.0,"NoVisTime_Total":0.0,"THCPSD_Align":0.0426012331,"THCErr_Align":0,"RHCPSD_Align":0.0,"RHCErr_Align":0,"THCPSD_Appr":0.0348673471,"THCErr_Appr":15,"RHCPSD_Appr":0.0057944528,"RHCErr_Appr":0,"THCPSD_FA":0.0156705489,"THCErr_FA":7,"RHCPSD_FA":0.0,"RHCErr_FA":0,"THCPSD_Total":0.0308626127,"THCErr_Total":22,"RHCPSD_Total":0.0024401215,"RHCErr_Total":0,"LatOffAvg_Align":1.4157894603,"LatOffAvg_Appr":0.9249614459,"LatOffAvg_FA":0.1572444403,"LatOffAvg_Total":0.7781085437,"RollRms_Align":0.421835158,"RollRms_Appr":0.2425592247,"RollRms_FA":1.1383666907,"RollRms_Total":0.6474553254,"YawRms_Align":0.1768060824,"YawRms_Appr":0.8912426833,"YawRms_FA":0.4598172828,"YawRms_Total":0.7269046678,"PitchRms_Align":0.3209093874,"PitchRms_Appr":1.1663132722,"PitchRms_FA":0.167432244,"PitchRms_Total":0.9048038312,"Aggressiveness_Align":0.4899202845,"Aggressiveness_Appr":0.5412525652,"Aggressiveness_FA":0.2871286244,"Aggressiveness_Total":0.4956090331,"DutyCycle_Align":0.1310679612,"DutyCycle_Appr":0.1346478873,"DutyCycle_FA":0.0676156584,"DutyCycle_Total":0.1155115512,"Workload_Align":0.0642128528,"Workload_Appr":0.0728785144,"Workload_FA":0.019414391,"Workload_Total":0.0572485682,"THC_Align":27,"THC_Appr":111,"THC_FA":29,"THC_Total":167,"RHC_Align":0,"RHC_Appr":3,"RHC_FA":0,"RHC_Total":3,"CombJoy_Align":0,"CombJoy_Appr":0,"CombJoy_FA":0,"CombJoy_Total":0,"THCIndErr_Align":0,"THCIndErr_Appr":0,"THCIndErr_FA":0,"THCIndErr_Total":0,"RHCIndErr_Align":0,"RHCIndErr_Appr":0,"RHCIndErr_FA":0,"RHCIndErr_Total":0}
{"Flight ID":"577fd7763bfcae33108114e277f14f7d41d565344b9e555ecc0c79ca67464e96","Date":2024,"Scenario":"A002","Manually modified Phases":"No","Start_Align":367.1143,"Duration_Align":286.0073,"Start_Appr":653.1216,"Duration_Appr":454.1712,"Start_FA":1107.2928,"Duration_FA":210.2998,"Time_Dock":1317.5926,"Duration_Total":950.4783,"OutOfCone_Align":169.6112,"OutOfCone_Appr":0.0,"OutOfCone_FA":0.0,"OutOfCone_Total":169.6112,"AboveClosingVel_Align":0,"AboveClosingVel_Appr":29.5187,"AboveClosingVel_FA":0.0,"AboveClosingVel_Total":29.5187,"Fuel_Align":5.094,"Fuel_Appr":9.742,"Fuel_FA":5.019,"Fuel_Total":19.855,"LatOffsetAtStart_Align":17.0256448042,"LatOffsetAtStart_Appr":5.5167238466,"LatOffsetAtStart_FA":0.1549516053,"LatOffsetAt_Dock":0.0191049732,"NoVisTime_Align":265.9591,"NoVisTime_Appr":0.0,"NoVisTime_FA":0.0,"NoVisTime_Total":265.9591,"THCPSD_Align":0.0352573253,"THCErr_Align":4,"RHCPSD_Align":0.0042843205,"RHCErr_Align":0,"THCPSD_Appr":0.0482531733,"THCErr_Appr":18,"RHCPSD_Appr":0.0021991932,"RHCErr_Appr":0,"THCPSD_FA":0.0103071336,"THCErr_FA":3,"RHCPSD_FA":0.0165236461,"RHCErr_FA":0,"THCPSD_Total":0.0378793221,"THCErr_Total":25,"RHCPSD_Total":0.0057223619,"RHCErr_Total":0,"LatOffAvg_Align":14.4993295147,"LatOffAvg_Appr":0.4877574436,"LatOffAvg_FA":0.0978770087,"LatOffAvg_Total":4.6382831467,"RollRms_Align":0.6047843512,"RollRms_Appr":1.8271304211,"RollRms_FA":0.6717283912,"RollRms_Total":1.342183623,"YawRms_Align":0.5971091708,"YawRms_Appr":0.6814785788,"YawRms_FA":0.9777062931,"YawRms_Total":0.7351344346,"PitchRms_Align":0.3434081459,"PitchRms_Appr":0.7103172432,"PitchRms_FA":0.898950924,"PitchRms_Total":0.6743432624,"Aggressiveness_Align":0.3909495215,"Aggressiveness_Appr":0.4455642477,"Aggressiveness_FA":0.3010563601,"Aggressiveness_Total":0.4392805574,"DutyCycle_Align":0.0776978417,"DutyCycle_Appr":0.1145595618,"DutyCycle_FA":0.0511811024,"DutyCycle_Total":0.0894061344,"Workload_Align":0.030375934,"Workload_Appr":0.051043645,"Workload_FA":0.0154083964,"Workload_Total":0.0392743766,"THC_Align":48,"THC_Appr":112,"THC_FA":18,"THC_Total":178,"RHC_Align":1,"RHC_Appr":1,"RHC_FA":4,"RHC_Total":6,"CombJoy_Align":0,"CombJoy_Appr":2,"CombJoy_FA":0,"CombJoy_Total":2,"THCIndErr_Align":0,"THCIndErr_Appr":0,"THCIndErr_FA":0,"THCIndErr_Total":0,"RHCIndErr_Align":0,"RHCIndErr_Appr":0,"RHCIndErr_FA":0,"RHCIndErr_Total":0}
{"Flight ID":"5e066b631ab1a1d3ea9aab37c279a491b14dd30f0eb5a4ba6c5ccbd161dabd60","Date":2024,"Scenario":"A002","Manually modified Phases":"No","Start_Align":22.79,"Duration_Align":10.7191,"Start_Appr":33.5091,"Duration_Appr":192.2666,"Start_FA":225.7757,"Duration_FA":83.6859,"Time_Dock":309.4616,"Duration_Total":286.6716,"OutOfCone_Align":0.0,"OutOfCone_Appr":0.0,"OutOfCone_FA":0.0,"OutOfCone_Total":0.0,"AboveClosingVel_Align":0,"AboveClosingVel_Appr":150.5482,"AboveClosingVel_FA":83.6859,"AboveClosingVel_Total":234.2341,"Fuel_Align":0.993,"Fuel_Appr":3.27,"Fuel_FA":2.492,"Fuel_Total":6.755,"LatOffsetAtStart_Align":1.9474108452,"LatOffsetAtStart_Appr":1.6220049322,"LatOffsetAtStart_FA":0.3224437936,"LatOffsetAt_Dock":0.1100727032,"NoVisTime_Align":0.0,"NoVisTime_Appr":0.0,"NoVisTime_FA":0.0,"NoVisTime_Total":0.0,"THCPSD_Align":0.0943040826,"THCErr_Align":0,"RHCPSD_Align":0.0,"RHCErr_Align":0,"THCPSD_Appr":0.0256668153,"THCErr_Appr":7,"RHCPSD_Appr":0.0038995508,"RHCErr_Appr":2,"THCPSD_FA":0.0314004416,"THCErr_FA":6,"RHCPSD_FA":0.0125069623,"RHCErr_FA":1,"THCPSD_Total":0.031874329,"THCErr_Total":13,"RHCPSD_Total":0.00687914,"RHCErr_Total":3,"LatOffAvg_Align":1.8116948311,"LatOffAvg_Appr":0.2948639326,"LatOffAvg_FA":0.229891943,"LatOffAvg_Total":0.3328066312,"RollRms_Align":0.318436052,"RollRms_Appr":0.5517825931,"RollRms_FA":0.9979833019,"RollRms_Total":0.7058827084,"YawRms_Align":0.124,"YawRms_Appr":0.2835582732,"YawRms_FA":0.5095389976,"YawRms_Total":0.3607924038,"PitchRms_Align":0.2089387102,"PitchRms_Appr":0.2107910246,"PitchRms_FA":0.4012832818,"PitchRms_Total":0.2799377969,"Aggressiveness_Align":0.7475021175,"Aggressiveness_Appr":0.5263052541,"Aggressiveness_FA":0.6258446601,"Aggressiveness_Total":0.6211866487,"DutyCycle_Align":0.25,"DutyCycle_Appr":0.1181525242,"DutyCycle_FA":0.2004950495,"DutyCycle_Total":0.1463590483,"Workload_Align":0.1868755294,"Workload_Appr":0.0621842943,"Workload_FA":0.1254787561,"Workload_Total":0.0909162867,"THC_Align":9,"THC_Appr":48,"THC_FA":33,"THC_Total":90,"RHC_Align":0,"RHC_Appr":8,"RHC_FA":10,"RHC_Total":18,"CombJoy_Align":0,"CombJoy_Appr":0,"CombJoy_FA":0,"CombJoy_Total":0,"THCIndErr_Align":0,"THCIndErr_Appr":0,"THCIndErr_FA":0,"THCIndErr_Total":0,"RHCIndErr_Align":0,"RHCIndErr_Appr":2,"RHCIndErr_FA":1,"RHCIndErr_Total":3}
{"Flight ID":"62a75c2ae8ebe8632773aa15606bf90322f01c6941caf9123f028c9acb492f82","Date":2024,"Scenario":"A002","Manually modified Phases":"No","Start_Align":158.7462,"Duration_Align":115.1312,"Start_Appr":273.8774,"Duration_Appr":243.9061,"Start_FA":517.7835,"Duration_FA":166.5665,"Time_Dock":684.35,"Duration_Total":525.6038,"OutOfCone_Align":0.0,"OutOfCone_Appr":0.0,"OutOfCone_FA":0.0,"OutOfCone_Total":0.0,"AboveClosingVel_Align":0,"AboveClosingVel_Appr":115.781,"AboveClosingVel_FA":3.4918,"AboveClosingVel_Total":119.2728,"Fuel_Align":0.503,"Fuel_Appr":4.394,"Fuel_FA":0.374,"Fuel_Total":5.271,"LatOffsetAtStart_Align":3.7340370914,"LatOffsetAtStart_Appr":0.2190639176,"LatOffsetAtStart_FA":0.2464731223,"LatOffsetAt_Dock":0.1967358635,"NoVisTime_Align":0.0,"NoVisTime_Appr":0.0,"NoVisTime_FA":0.0,"NoVisTime_Total":0.0,"THCPSD_Align":0.0062342808,"THCErr_Align":0,"RHCPSD_Align":0.0,"RHCErr_Align":0,"THCPSD_Appr":0.0162266055,"THCErr_Appr":4,"RHCPSD_Appr":0.0066412288,"RHCErr_Appr":4,"THCPSD_FA":0.0056834552,"THCErr_FA":2,"RHCPSD_FA":0.0,"RHCErr_FA":0,"THCPSD_Total":0.0144947998,"THCErr_Total":6,"RHCPSD_Total":0.0025579994,"RHCErr_Total":4,"LatOffAvg_Align":1.9411385832,"LatOffAvg_Appr":0.3560466266,"LatOffAvg_FA":0.1929697417,"LatOffAvg_Total":0.6530281324,"RollRms_Align":0.4461993694,"RollRms_Appr":0.3675756503,"RollRms_FA":0.3381058224,"RollRms_Total":0.3776494672,"YawRms_Align":0.0917983439,"YawRms_Appr":0.3797251319,"YawRms_FA":0.4743423095,"YawRms_Total":0.3739303613,"PitchRms_Align":0.2340819502,"PitchRms_Appr":0.6079336564,"PitchRms_FA":0.1770016753,"PitchRms_Total":0.4401979245,"Aggressiveness_Align":0.2446768698,"Aggressiveness_Appr":0.4840129716,"Aggressiveness_FA":0.2000496896,"Aggressiveness_Total":0.391219693,"DutyCycle_Align":0.0516014235,"DutyCycle_Appr":0.102607233,"DutyCycle_FA":0.0223325062,"DutyCycle_Total":0.0668752444,"Workload_Align":0.0126256748,"Workload_Appr":0.0496632317,"Workload_FA":0.0044676109,"Workload_Total":0.0261629126,"THC_Align":14,"THC_Appr":47,"THC_FA":9,"THC_Total":70,"RHC_Align":0,"RHC_Appr":13,"RHC_FA":0,"RHC_Total":13,"CombJoy_Align":0,"CombJoy_Appr":0,"CombJoy_FA":0,"CombJoy_Total":0,"THCIndErr_Align":0,"THCIndErr_Appr":0,"THCIndErr_FA":0,"THCIndErr_Total":0,"RHCIndErr_Align":0,"RHCIndErr_Appr":4,"RHCIndErr_FA":0,"RHCIndErr_Total":4}
{"Flight ID":"6463527201c6892e64e5352b4f1712678725905301db85c82ee56db96a2747f1","Date":2024,"Scenario":"A002","Manually modified Phases":"No","Start_Align":31.1312,"Duration_Align":2.9256,"Start_Appr":34.0568,"Duration_Appr":328.6315,"Start_FA":362.6883,"Duration_FA":169.6851,"Time_Dock":532.3734,"Duration_Total":501.2422,"OutOfCone_Align":0.0,"OutOfCone_Appr":0.0,"OutOfCone_FA":0.0,"OutOfCone_Total":0.0,"AboveClosingVel_Align":0,"AboveClosingVel_Appr":0.0,"AboveClosingVel_FA":0.0,"AboveClosingVel_Total":0.0,"Fuel_Align":0.317,"Fuel_Appr":6.16,"Fuel_FA":4.5,"Fuel_Total":10.977,"LatOffsetAtStart_Align":1.9944342556,"LatOffsetAtStart_Appr":2.0124263962,"LatOffsetAtStart_FA":0.182428068,"LatOffsetAt_Dock":0.1781375873,"NoVisTime_Align":0.0,"NoVisTime_Appr":0.0,"NoVisTime_FA":0.0,"NoVisTime_Total":0.0,"THCPSD_Align":0.0,"THCErr_Align":0,"RHCPSD_Align":0.0,"RHCErr_Align":0,"THCPSD_Appr":0.0267607939,"THCErr_Appr":5,"RHCPSD_Appr":0.0050218307,"RHCErr_Appr":2,"THCPSD_FA":0.0188214506,"THCErr_FA":4,"RHCPSD_FA":0.031441513,"RHCErr_FA":3,"THCPSD_Total":0.0259236808,"THCErr_Total":9,"RHCPSD_Total":0.0140661357,"RHCErr_Total":5,"LatOffAvg_Align":2.0026763564,"LatOffAvg_Appr":0.3714555614,"LatOffAvg_FA":0.1153348646,"LatOffAvg_Total":0.2947743734,"RollRms_Align":0.312,"RollRms_Appr":0.7346198781,"RollRms_FA":1.3867711234,"RollRms_Total":1.0011316466,"YawRms_Align":0.124,"YawRms_Appr":0.1921027022,"YawRms_FA":0.1918301069,"YawRms_Total":0.1916866505,"PitchRms_Align":0.2108047506,"PitchRms_Appr":0.1635060657,"PitchRms_FA":0.2746294332,"PitchRms_Total":0.2078615317,"Aggressiveness_Align":0.0,"Aggressiveness_Appr":0.5050390345,"Aggressiveness_FA":0.5995640729,"Aggressiveness_Total":0.5644388316,"DutyCycle_Align":0.0714285714,"DutyCycle_Appr":0.0973006905,"DutyCycle_FA":0.1117936118,"DutyCycle_Total":0.1016109046,"Workload_Align":0.0,"Workload_Appr":0.0491406468,"Workload_FA":0.0670274332,"Workload_Total":0.0573531403,"THC_Align":1,"THC_Appr":59,"THC_FA":25,"THC_Total":85,"RHC_Align":0,"RHC_Appr":15,"RHC_FA":16,"RHC_Total":31,"CombJoy_Align":0,"CombJoy_Appr":0,"CombJoy_FA":0,"CombJoy_Total":0,"THCIndErr_Align":0,"THCIndErr_Appr":0,"THCIndErr_FA":0,"THCIndErr_Total":0,"RHCIndErr_Align":0,"RHCIndErr_Appr":1,"RHCIndErr_FA":1,"RHCIndErr_Total":2}
{"Flight ID":"6518fee52f365dc7b523dacd8a5a666a1c54a000a878bbefa3dcc3b6edd28ebc","Date":2024,"Scenario":"A002","Manually modified Phases":"No","Start_Align":241.3979,"Duration_Align":321.1516,"Start_Appr":562.5495,"Duration_Appr":292.2159,"Start_FA":854.7654,"Duration_FA":265.2003,"Time_Dock":1119.9657,"Duration_Total":878.5678,"OutOfCone_Align":0.0,"OutOfCone_Appr":0.0,"OutOfCone_FA":0.0,"OutOfCone_Total":0.0,"AboveClosingVel_Align":0,"AboveClosingVel_Appr":197.5697,"AboveClosingVel_FA":80.1306,"AboveClosingVel_Total":277.7003,"Fuel_Align":9.501,"Fuel_Appr":6.402,"Fuel_FA":9.464,"Fuel_Total":25.367,"LatOffsetAtStart_Align":8.2338931254,"LatOffsetAtStart_Appr":0.9270436883,"LatOffsetAtStart_FA":0.945169297,"LatOffsetAt_Dock":0.0663098786,"NoVisTime_Align":0.0,"NoVisTime_Appr":0.0,"NoVisTime_FA":0.0,"NoVisTime_Total":0.0,"THCPSD_Align":0.0516156471,"THCErr_Align":4,"RHCPSD_Align":0.0,"RHCErr_Align":0,"THCPSD_Appr":0.0349948609,"THCErr_Appr":3,"RHCPSD_Appr":0.0064994704,"RHCErr_Appr":2,"THCPSD_FA":0.0320916743,"THCErr_FA":3,"RHCPSD_FA":0.0232867642,"RHCErr_FA":6,"THCPSD_Total":0.0409186051,"THCErr_Total":10,"RHCPSD_Total":0.0085548025,"RHCErr_Total":8,"LatOffAvg_Align":2.9632698317,"LatOffAvg_Appr":0.8397209854,"LatOffAvg_FA":0.4527939111,"LatOffAvg_Total":1.5049078737,"RollRms_Align":0.208135222,"RollRms_Appr":0.6343487843,"RollRms_FA":1.9329357104,"RollRms_Total":1.1253307489,"YawRms_Align":0.3799360504,"YawRms_Appr":1.1637571171,"YawRms_FA":0.221355301,"YawRms_Total":0.7207463895,"PitchRms_Align":0.250382488,"PitchRms_Appr":1.390904722,"PitchRms_FA":1.3570675509,"PitchRms_Total":1.1038890132,"Aggressiveness_Align":0.4336928166,"Aggressiveness_Appr":0.5143590798,"Aggressiveness_FA":0.6205772381,"Aggressiveness_Total":0.5741944585,"DutyCycle_Align":0.1170825336,"DutyCycle_Appr":0.1184767278,"DutyCycle_FA":0.1472440945,"DutyCycle_Total":0.1265584568,"Workload_Align":0.0507778538,"Workload_Appr":0.0609395807,"Workload_FA":0.0913763335,"Workload_Total":0.0726691646,"THC_Align":80,"THC_Appr":66,"THC_FA":50,"THC_Total":196,"RHC_Align":0,"RHC_Appr":10,"RHC_FA":27,"RHC_Total":37,"CombJoy_Align":0,"CombJoy_Appr":0,"CombJoy_FA":0,"CombJoy_Total":0,"THCIndErr_Align":0,"THCIndErr_Appr":0,"THCIndErr_FA":0,"THCIndErr_Total":0,"RHCIndErr_Align":0,"RHCIndErr_Appr":1,"RHCIndErr_FA":0,"RHCIndErr_Total":1}
{"Flight ID":"6c70cd323267365b47fef6d827a9db0c4059470fd83311848b57b56e58015242","Date":2024,"Scenario":"A002","Manually modified Phases":"No","Start_Align":27.2989,"Duration_Align":8.392,"Start_Appr":35.6909,"Duration_Appr":152.833,"Start_FA":188.5239,"Duration_FA":142.9294,"Time_Dock":331.4533,"Duration_Total":304.1544,"OutOfCone_Align":0.0,"OutOfCone_Appr":0.0,"OutOfCone_FA":0.0,"OutOfCone_Total":0.0,"AboveClosingVel_Align":0,"AboveClosingVel_Appr":144.6918,"AboveClosingVel_FA":42.6246,"AboveClosingVel_Total":187.3164,"Fuel_Align":0.819,"Fuel_Appr":5.349,"Fuel_FA":1.19,"Fuel_Total":7.358,"LatOffsetAtStart_Align":1.972624901,"LatOffsetAtStart_Appr":1.7351023025,"LatOffsetAtStart_FA":0.1564001279,"LatOffsetAt_Dock":0.0581377674,"NoVisTime_Align":0.0,"NoVisTime_Appr":0.0,"NoVisTime_FA":0.0,"NoVisTime_Total":0.0,"THCPSD_Align":0.0313118874,"THCErr_Align":1,"RHCPSD_Align":0.0,"RHCErr_Align":0,"THCPSD_Appr":0.0759333815,"THCErr_Appr":7,"RHCPSD_Appr":0.0,"RHCErr_Appr":0,"THCPSD_FA":0.0225404058,"THCErr_FA":4,"RHCPSD_FA":0.0,"RHCErr_FA":0,"THCPSD_Total":0.048586678,"THCErr_Total":12,"RHCPSD_Total":0.0,"RHCErr_Total":0,"LatOffAvg_Align":1.8604663897,"LatOffAvg_Appr":1.0361420277,"LatOffAvg_FA":0.0669255818,"LatOffAvg_Total":0.6080682457,"RollRms_Align":0.3143298824,"RollRms_Appr":0.3214347005,"RollRms_FA":0.261725381,"RollRms_Total":0.2949560389,"YawRms_Align":0.1308319533,"YawRms_Appr":0.1482890357,"YawRms_FA":0.051689885,"YawRms_Total":0.1134437624,"PitchRms_Align":0.209119045,"PitchRms_Appr":0.1317374115,"PitchRms_FA":0.1674296655,"PitchRms_Total":0.1518212508,"Aggressiveness_Align":0.3515364134,"Aggressiveness_Appr":0.500142352,"Aggressiveness_FA":0.3323464763,"Aggressiveness_Total":0.433377341,"DutyCycle_Align":0.125,"DutyCycle_Appr":0.1346938776,"DutyCycle_FA":0.0623145401,"DutyCycle_Total":0.1000690131,"Workload_Align":0.0439420517,"Workload_Appr":0.0673661127,"Workload_FA":0.0207100178,"Workload_Total":0.0433676428,"THC_Align":3,"THC_Appr":49,"THC_FA":23,"THC_Total":75,"RHC_Align":0,"RHC_Appr":0,"RHC_FA":0,"RHC_Total":0,"CombJoy_Align":0,"CombJoy_Appr":0,"CombJoy_FA":0,"CombJoy_Total":0,"THCIndErr_Align":0,"THCIndErr_Appr":0,"THCIndErr_FA":0,"THCIndErr_Total":0,"RHCIndErr_Align":0,"RHCIndErr_Appr":0,"RHCIndErr_FA":0,"RHCIndErr_Total":0}
{"Flight ID":"6d33adaf42519e3a52cb19e6ab6822a61167db59c0e55609a2b9c5dc87b05e04","Date":2024,"Scenario":"A002","Manually modified Phases":"No","Start_Align":80.0586,"Duration_Align":181.9425,"Start_Appr":262.0011,"Duration_Appr":522.2312,"Start_FA":784.2323,"Duration_FA":184.4567,"Time_Dock":968.689,"Duration_Total":888.6304,"OutOfCone_Align":0.0,"OutOfCone_Appr":0.0,"OutOfCone_FA":0.0,"OutOfCone_Total":0.0,"AboveClosingVel_Align":0,"AboveClosingVel_Appr":32.2356,"AboveClosingVel_FA":0.0,"AboveClosingVel_Total":32.2356,"Fuel_Align":3.862,"Fuel_Appr":15.344,"Fuel_FA":2.847,"Fuel_Total":22.053,"LatOffsetAtStart_Align":2.4499683671,"LatOffsetAtStart_Appr":0.1441804425,"LatOffsetAtStart_FA":0.1361322886,"LatOffsetAt_Dock":0.1909188309,"NoVisTime_Align":0.0,"NoVisTime_Appr":0.0,"NoVisTime_FA":0.0,"NoVisTime_Total":0.0,"THCPSD_Align":0.0434235199,"THCErr_Align":17,"RHCPSD_Align":0.0,"RHCErr_Align":0,"THCPSD_Appr":0.0366189372,"THCErr_Appr":13,"RHCPSD_Appr":0.0092412149,"RHCErr_Appr":8,"THCPSD_FA":0.0109320469,"THCErr_FA":4,"RHCPSD_FA":0.0191108237,"RHCErr_FA":3,"THCPSD_Total":0.0330080976,"THCErr_Total":34,"RHCPSD_Total":0.0090273284,"RHCErr_Total":11,"LatOffAvg_Align":0.6964858728,"LatOffAvg_Appr":0.1960993668,"LatOffAvg_FA":0.168481327,"LatOffAvg_Total":0.2923810205,"RollRms_Align":0.2515030983,"RollRms_Appr":1.4331367382,"RollRms_FA":1.222187603,"RollRms_Total":1.2377124825,"YawRms_Align":0.2071419346,"YawRms_Appr":0.5372952051,"YawRms_FA":0.411043796,"YawRms_Total":0.4623384048,"PitchRms_Align":0.4294148467,"PitchRms_Appr":0.7128900608,"PitchRms_FA":0.297393818,"PitchRms_Total":0.5959551201,"Aggressiveness_Align":0.4457761805,"Aggressiveness_Appr":0.5265151288,"Aggressiveness_FA":0.442124269,"Aggressiveness_Total":0.5349768659,"DutyCycle_Align":0.1140250855,"DutyCycle_Appr":0.1093564943,"DutyCycle_FA":0.0885650224,"DutyCycle_Total":0.1057647606,"Workload_Align":0.0508296671,"Workload_Appr":0.0575778487,"Workload_FA":0.0391567458,"Workload_Total":0.0565817001,"THC_Align":50,"THC_Appr":103,"THC_FA":18,"THC_Total":171,"RHC_Align":0,"RHC_Appr":25,"RHC_FA":15,"RHC_Total":40,"CombJoy_Align":0,"CombJoy_Appr":0,"CombJoy_FA":0,"CombJoy_Total":0,"THCIndErr_Align":0,"THCIndErr_Appr":1,"THCIndErr_FA":0,"THCIndErr_Total":1,"RHCIndErr_Align":0,"RHCIndErr_Appr":6,"RHCIndErr_FA":0,"RHCIndErr_Total":6}
