{"Flight ID":"026a1807a734a85e09ffb01158a8a42fd1646f0516d527f7db1920f178dfcb27","Date":2018,"Scenario":"C003","Manually modified Phases":"No","Start_Align":5.3971,"Duration_Align":20.1155,"Start_Appr":25.5126,"Duration_Appr":487.0019,"Start_FA":512.5145,"Duration_FA":156.519,"Time_Dock":669.0335,"OutOfCone_Align":20.1155,"OutOfCone_Appr":94.8341,"OutOfCone_FA":0.0,"Fuel_Align":5.501,"Fuel_Appr":84.95,"Fuel_FA":9.528,"LatOffsetAtStart_Align":26.8424030221,"LatOffsetAtStart_Appr":29.3756024619,"LatOffsetAtStart_FA":0.4944188508,"LatOffsetAt_Dock":0.0337342556,"NoVisTime_Align":0.0,"NoVisTime_Appr":0.0,"NoVisTime_FA":0.0,"NoVisTime_Total":0.0,"LatOffAvg_Align":28.2674030533,"LatOffAvg_Appr":6.3253240596,"LatOffAvg_FA":0.2604604892,"LatOffAvg_Total":5.5613097711,"AboveClosingVel_Align":0.0,"AboveClosingVel_Appr":41.056,"AboveClosingVel_FA":96.0878,"AboveClosingVel_Total":137.1438,"RollRms_Align":2.441778911,"RollRms_Appr":1.8164052835,"RollRms_FA":0.2019013993,"RollRms_Total":1.6161518812,"YawRms_Align":2.2614034028,"YawRms_Appr":1.9562911791,"YawRms_FA":1.0781263181,"YawRms_Total":1.799426847,"PitchRms_Align":21.9540924527,"PitchRms_Appr":7.9829533276,"PitchRms_FA":1.410986537,"PitchRms_Total":7.8653346868,"Duration_Total":663.6364,"OutOfCone_Total":114.9496,"Fuel_Total":99.979,"THCErr_Align":0,"RHCErr_Align":9,"THCErr_Appr":7,"RHCErr_Appr":123,"THCErr_FA":12,"RHCErr_FA":15,"THCErr_Total":19,"RHCErr_Total":147,"THCPSD_Align":0.0437618859,"RHCPSD_Align":0.074037717,"THCPSD_Appr":0.0463063082,"RHCPSD_Appr":0.005228013,"THCPSD_FA":0.0337207778,"RHCPSD_FA":0.0005996186,"THCPSD_Total":0.0454472592,"RHCPSD_Total":0.0056542728,"DutyCycle_Align":0.49,"DutyCycle_Appr":0.3861099628,"DutyCycle_FA":0.2522522523,"DutyCycle_Total":0.3570995146,"Aggressiveness_Align":0.809880696,"Aggressiveness_Appr":0.498647228,"Aggressiveness_FA":0.4788104491,"Aggressiveness_Total":0.5319570786,"Workload_Align":0.3968415411,"Workload_Appr":0.1925326626,"Workload_FA":0.1207810142,"Workload_Total":0.1899616145}
{"Flight ID":"05b53622dd68390a35aff48fbce9ecd8535335e04a22bd4110a95ee82a348e74","Date":2024,"Scenario":"C003","Manually modified Phases":"No","Start_Align":33.5583,"Duration_Align":411.3786,"Start_Appr":444.9369,"Duration_Appr":372.191,"Start_FA":817.1279,"Duration_FA":212.706,"Time_Dock":1029.8339,"OutOfCone_Align":196.2436,"OutOfCone_Appr":0.0,"OutOfCone_FA":0.0,"Fuel_Align":87.85,"Fuel_Appr":67.029,"Fuel_FA":44.505,"LatOffsetAtStart_Align":31.0192938185,"LatOffsetAtStart_Appr":10.8000800923,"LatOffsetAtStart_FA":0.54440518,"LatOffsetAt_Dock":0.103247276,"NoVisTime_Align":11.3479,"NoVisTime_Appr":0.0,"NoVisTime_FA":0.0,"NoVisTime_Total":11.3479,"LatOffAvg_Align":19.515093932,"LatOffAvg_Appr":1.5690018366,"LatOffAvg_FA":0.2898169168,"LatOffAvg_Total":8.7195456513,"AboveClosingVel_Align":0.0,"AboveClosingVel_Appr":49.8279,"AboveClosingVel_FA":0.0,"AboveClosingVel_Total":49.8279,"RollRms_Align":8.542067165,"RollRms_Appr":1.5469734723,"RollRms_FA":0.9419108895,"RollRms_Total":5.5911920796,"YawRms_Align":1.1380946747,"YawRms_Appr":0.2694151516,"YawRms_FA":0.2309349679,"YawRms_Total":0.7577421464,"PitchRms_Align":14.8289311297,"PitchRms_Appr":1.4064310191,"PitchRms_FA":1.410368168,"PitchRms_Total":9.5972925867,"Duration_Total":996.2756,"OutOfCone_Total":196.2436,"Fuel_Total":199.384,"THCErr_Align":7,"RHCErr_Align":53,"THCErr_Appr":10,"RHCErr_Appr":25,"THCErr_FA":6,"RHCErr_FA":55,"THCErr_Total":23,"RHCErr_Total":133,"THCPSD_Align":0.0903067956,"RHCPSD_Align":0.0758316938,"THCPSD_Appr":0.059292805,"RHCPSD_Appr":0.0493426991,"THCPSD_FA":0.0608600525,"RHCPSD_FA":0.0785855823,"THCPSD_Total":0.0730170161,"RHCPSD_Total":0.0659629719,"DutyCycle_Align":0.3446873411,"DutyCycle_Appr":0.4097807757,"DutyCycle_FA":0.4346534653,"DutyCycle_Total":0.3881412952,"Aggressiveness_Align":0.6929197745,"Aggressiveness_Appr":0.6713900728,"Aggressiveness_FA":0.76711982,"Aggressiveness_Total":0.7077763754,"Workload_Align":0.2388406747,"Workload_Appr":0.2751227448,"Workload_FA":0.3334312881,"Workload_Total":0.2747172391}
{"Flight ID":"0b13bc9f66f9e1b93ed8b40990bfb8727273a67a75d5976aee9fab583e74f42a","Date":2024,"Scenario":"C003","Manually modified Phases":"No","Start_Align":38.6822,"Duration_Align":30.1665,"Start_Appr":68.8487,"Duration_Appr":397.1124,"Start_FA":465.9611,"Duration_FA":171.0984,"Time_Dock":637.0595,"OutOfCone_Align":30.1665,"OutOfCone_Appr":54.5397,"OutOfCone_FA":0.0,"Fuel_Align":6.816,"Fuel_Appr":60.781,"Fuel_FA":24.371,"LatOffsetAtStart_Align":31.7713449039,"LatOffsetAtStart_Appr":33.7380462535,"LatOffsetAtStart_FA":0.4101475344,"LatOffsetAt_Dock":0.1010791769,"NoVisTime_Align":2.2746,"NoVisTime_Appr":3.5669,"NoVisTime_FA":0.0,"NoVisTime_Total":5.8415,"LatOffAvg_Align":33.7854406193,"LatOffAvg_Appr":4.3098914324,"LatOffAvg_FA":0.2453841708,"LatOffAvg_Total":4.6448517916,"AboveClosingVel_Align":0.0,"AboveClosingVel_Appr":0.0,"AboveClosingVel_FA":0.0,"AboveClosingVel_Total":0.0,"RollRms_Align":0.0528301769,"RollRms_Appr":0.4309109242,"RollRms_FA":0.3861293057,"RollRms_Total":0.4073802524,"YawRms_Align":2.0364859812,"YawRms_Appr":0.6846838914,"YawRms_FA":0.2828370018,"YawRms_Total":0.7378430976,"PitchRms_Align":25.5308695564,"PitchRms_Appr":8.2954781545,"PitchRms_FA":1.1648375618,"PitchRms_Total":8.8957068591,"Duration_Total":598.3773,"OutOfCone_Total":84.7062,"Fuel_Total":91.968,"THCErr_Align":2,"RHCErr_Align":0,"THCErr_Appr":1,"RHCErr_Appr":9,"THCErr_FA":5,"RHCErr_FA":3,"THCErr_Total":8,"RHCErr_Total":12,"THCPSD_Align":0.0291336713,"RHCPSD_Align":0.0545039075,"THCPSD_Appr":0.080932045,"RHCPSD_Appr":0.0598095442,"THCPSD_FA":0.0483496572,"RHCPSD_FA":0.0414814478,"THCPSD_Total":0.0731882798,"RHCPSD_Total":0.0521564976,"DutyCycle_Align":0.324137931,"DutyCycle_Appr":0.241960991,"DutyCycle_FA":0.2475490196,"DutyCycle_Total":0.2473757873,"Aggressiveness_Align":0.4597086784,"Aggressiveness_Appr":0.5631713371,"Aggressiveness_FA":0.5159236465,"Aggressiveness_Total":0.5561832825,"Workload_Align":0.1490090199,"Workload_Appr":0.1362654949,"Workload_FA":0.1277163929,"Workload_Total":0.1375862774}
{"Flight ID":"104b0f73e4605dcc6d1b3921942c0dc86a0897a093fb773da2a4209889924999","Date":2018,"Scenario":"C003","Manually modified Phases":"No","Start_Align":7.4234,"Duration_Align":73.8829,"Start_Appr":81.3063,"Duration_Appr":471.0881,"Start_FA":552.3944,"Duration_FA":176.252,"Time_Dock":728.6464,"OutOfCone_Align":73.8829,"OutOfCone_Appr":38.6694,"OutOfCone_FA":6.6524,"Fuel_Align":17.374,"Fuel_Appr":96.23,"Fuel_FA":52.409,"LatOffsetAtStart_Align":27.1462307144,"LatOffsetAtStart_Appr":25.2323913254,"LatOffsetAtStart_FA":0.4087652138,"LatOffsetAt_Dock":0.8660952603,"NoVisTime_Align":0.0,"NoVisTime_Appr":0.0,"NoVisTime_FA":10.0746,"NoVisTime_Total":10.0746,"LatOffAvg_Align":28.5893235723,"LatOffAvg_Appr":3.9070028426,"LatOffAvg_FA":0.5177267894,"LatOffAvg_Total":5.6079506822,"AboveClosingVel_Align":0.0,"AboveClosingVel_Appr":13.0823,"AboveClosingVel_FA":21.9682,"AboveClosingVel_Total":35.0505,"RollRms_Align":0.1889089713,"RollRms_Appr":1.2023201163,"RollRms_FA":1.0252214936,"RollRms_Total":1.0976134678,"YawRms_Align":2.0120760904,"YawRms_Appr":1.8432914765,"YawRms_FA":3.6706861419,"YawRms_Total":2.4342927822,"PitchRms_Align":20.506773424,"PitchRms_Appr":5.2892170869,"PitchRms_FA":1.7827550163,"PitchRms_Total":7.8827610851,"Duration_Total":721.223,"OutOfCone_Total":119.2047,"Fuel_Total":166.013,"THCErr_Align":0,"RHCErr_Align":21,"THCErr_Appr":1,"RHCErr_Appr":165,"THCErr_FA":1,"RHCErr_FA":140,"THCErr_Total":2,"RHCErr_Total":326,"THCPSD_Align":0.0515249141,"RHCPSD_Align":0.031896505,"THCPSD_Appr":0.0407984499,"RHCPSD_Appr":0.028987655,"THCPSD_FA":0.0201549707,"RHCPSD_FA":0.0434351908,"THCPSD_Total":0.0436250087,"RHCPSD_Total":0.0340035947,"DutyCycle_Align":0.4114441417,"DutyCycle_Appr":0.4696581197,"DutyCycle_FA":0.7325714286,"DutyCycle_Total":0.527638191,"Aggressiveness_Align":0.3469507422,"Aggressiveness_Appr":0.559899515,"Aggressiveness_FA":0.6969059311,"Aggressiveness_Total":0.5991852388,"Workload_Align":0.1427508504,"Workload_Appr":0.2629613534,"Workload_FA":0.5105333736,"Workload_Total":0.3161530155}
{"Flight ID":"146732f581d0a30f81f9c505a9259d618506689202054c14c215fd34b8494c76","Date":2024,"Scenario":"C003","Manually modified Phases":"Yes","Start_Align":64.1706,"Duration_Align":174.4305,"Start_Appr":238.6011,"Duration_Appr":399.454,"Start_FA":638.0551,"Duration_FA":224.7734,"Time_Dock":862.8285,"OutOfCone_Align":138.5144,"OutOfCone_Appr":0.0,"OutOfCone_FA":84.3955,"Fuel_Align":33.611,"Fuel_Appr":57.155,"Fuel_FA":40.99,"LatOffsetAtStart_Align":35.4878036655,"LatOffsetAtStart_Appr":6.0142471682,"LatOffsetAtStart_FA":0.4360332556,"LatOffsetAt_Dock":0.3840026042,"NoVisTime_Align":47.3386,"NoVisTime_Appr":201.9868,"NoVisTime_FA":94.0066,"NoVisTime_Total":343.332,"LatOffAvg_Align":25.8485412843,"LatOffAvg_Appr":4.091997585,"LatOffAvg_FA":1.2035905223,"LatOffAvg_Total":8.0516129041,"AboveClosingVel_Align":0.0,"AboveClosingVel_Appr":17.1352,"AboveClosingVel_FA":48.5023,"AboveClosingVel_Total":65.6375,"RollRms_Align":2.4046455454,"RollRms_Appr":3.2705388512,"RollRms_FA":1.6892065816,"RollRms_Total":2.7277744751,"YawRms_Align":1.4869038466,"YawRms_Appr":1.42434141,"YawRms_FA":0.658730801,"YawRms_Total":1.274885118,"PitchRms_Align":20.3258022966,"PitchRms_Appr":4.5617414114,"PitchRms_FA":5.6074786593,"PitchRms_Total":10.4711586849,"Duration_Total":798.6579,"OutOfCone_Total":222.9099,"Fuel_Total":131.756,"THCErr_Align":5,"RHCErr_Align":15,"THCErr_Appr":6,"RHCErr_Appr":26,"THCErr_FA":9,"RHCErr_FA":17,"THCErr_Total":20,"RHCErr_Total":58,"THCPSD_Align":0.0717713973,"RHCPSD_Align":0.0612679433,"THCPSD_Appr":0.065738052,"RHCPSD_Appr":0.0529537543,"THCPSD_FA":0.0764273052,"RHCPSD_FA":0.0743841133,"THCPSD_Total":0.0656030325,"RHCPSD_Total":0.0647277295,"DutyCycle_Align":0.1810551559,"DutyCycle_Appr":0.1919666145,"DutyCycle_FA":0.2568460812,"DutyCycle_Total":0.2073490814,"Aggressiveness_Align":0.4158388985,"Aggressiveness_Appr":0.5697589025,"Aggressiveness_FA":0.7649207071,"Aggressiveness_Total":0.6118705764,"Workload_Align":0.0752897766,"Workload_Appr":0.1093746876,"Workload_FA":0.1964668861,"Workload_Total":0.1268708019}
{"Flight ID":"14be3944156ba3ee0eb6eed94acf7423cc989cb6c45acd7d1aa1e0763ed8c077","Date":2024,"Scenario":"C003","Manually modified Phases":"No","Start_Align":75.4596,"Duration_Align":177.555,"Start_Appr":253.0146,"Duration_Appr":198.456,"Start_FA":451.4706,"Duration_FA":247.6874,"Time_Dock":699.158,"OutOfCone_Align":68.8701,"OutOfCone_Appr":15.8201,"OutOfCone_FA":13.0451,"Fuel_Align":31.058,"Fuel_Appr":26.157,"Fuel_FA":30.552,"LatOffsetAtStart_Align":37.1297789382,"LatOffsetAtStart_Appr":4.1064379942,"LatOffsetAtStart_FA":3.569336633,"LatOffsetAt_Dock":0.0829698741,"NoVisTime_Align":15.7615,"NoVisTime_Appr":0.0,"NoVisTime_FA":0.0,"NoVisTime_Total":15.7615,"LatOffAvg_Align":16.129040975,"LatOffAvg_Appr":3.8124619969,"LatOffAvg_FA":0.7565482807,"LatOffAvg_Total":6.1294434472,"AboveClosingVel_Align":0.0,"AboveClosingVel_Appr":172.5909,"AboveClosingVel_FA":21.4129,"AboveClosingVel_Total":194.0038,"RollRms_Align":3.1212886801,"RollRms_Appr":5.0799838123,"RollRms_FA":0.5922014181,"RollRms_Total":3.340378733,"YawRms_Align":1.9552492988,"YawRms_Appr":1.2698988588,"YawRms_FA":0.3141097167,"YawRms_Total":1.2834165626,"PitchRms_Align":12.6235763658,"PitchRms_Appr":8.061291152,"PitchRms_FA":3.978844994,"PitchRms_Total":8.5189884274,"Duration_Total":623.6984,"OutOfCone_Total":97.7353,"Fuel_Total":87.767,"THCErr_Align":5,"RHCErr_Align":9,"THCErr_Appr":10,"RHCErr_Appr":9,"THCErr_FA":16,"RHCErr_FA":1,"THCErr_Total":31,"RHCErr_Total":19,"THCPSD_Align":0.1021530798,"RHCPSD_Align":0.0363638908,"THCPSD_Appr":0.0947359453,"RHCPSD_Appr":0.0335118002,"THCPSD_FA":0.1004866646,"RHCPSD_FA":0.0348606215,"THCPSD_Total":0.0960237515,"RHCPSD_Total":0.0402393191,"DutyCycle_Align":0.1455399061,"DutyCycle_Appr":0.1347368421,"DutyCycle_FA":0.2142857143,"DutyCycle_Total":0.1689053056,"Aggressiveness_Align":0.3877773747,"Aggressiveness_Appr":0.4805354809,"Aggressiveness_FA":0.6302227073,"Aggressiveness_Total":0.5643656227,"Workload_Align":0.0564370827,"Workload_Appr":0.0647458332,"Workload_FA":0.135047723,"Workload_Total":0.095324348}
{"Flight ID":"15a3af5456a3df5b3223c2276e9d5859bf0ed5bb1be9f6e05605607e261a3bc0","Date":2024,"Scenario":"C003","Manually modified Phases":"Yes","Start_Align":24.0144,"Duration_Align":104.619,"Start_Appr":128.6334,"Duration_Appr":248.7315,"Start_FA":377.3649,"Duration_FA":327.1611,"Time_Dock":704.526,"OutOfCone_Align":90.8155,"OutOfCone_Appr":0.0,"OutOfCone_FA":5.1532,"Fuel_Align":8.768,"Fuel_Appr":19.67,"Fuel_FA":28.67,"LatOffsetAtStart_Align":29.6116619763,"LatOffsetAtStart_Appr":9.0218881062,"LatOffsetAtStart_FA":1.0276117944,"LatOffsetAt_Dock":0.7180396925,"NoVisTime_Align":0.0,"NoVisTime_Appr":0.0,"NoVisTime_FA":9.3551,"NoVisTime_Total":9.3551,"LatOffAvg_Align":22.5964269464,"LatOffAvg_Appr":2.5276618883,"LatOffAvg_FA":0.7054152384,"LatOffAvg_Total":4.7561126907,"AboveClosingVel_Align":0.0,"AboveClosingVel_Appr":129.1001,"AboveClosingVel_FA":44.2736,"AboveClosingVel_Total":173.3737,"RollRms_Align":0.6348079828,"RollRms_Appr":1.3230503692,"RollRms_FA":0.2389543285,"RollRms_Total":0.856664546,"YawRms_Align":2.3985292303,"YawRms_Appr":1.9037586624,"YawRms_FA":1.4096342281,"YawRms_Total":1.7807894947,"PitchRms_Align":17.6220890405,"PitchRms_Appr":2.4885131622,"PitchRms_FA":4.1025064257,"PitchRms_Total":7.6329331944,"Duration_Total":680.5116,"OutOfCone_Total":95.9687,"Fuel_Total":57.108,"THCErr_Align":1,"RHCErr_Align":0,"THCErr_Appr":3,"RHCErr_Appr":7,"THCErr_FA":17,"RHCErr_FA":4,"THCErr_Total":21,"RHCErr_Total":11,"THCPSD_Align":0.0499603974,"RHCPSD_Align":0.0077015812,"THCPSD_Appr":0.0583907595,"RHCPSD_Appr":0.0034694789,"THCPSD_FA":0.0326784011,"RHCPSD_FA":0.0108256086,"THCPSD_Total":0.0438901226,"RHCPSD_Total":0.0075568974,"DutyCycle_Align":0.1549295775,"DutyCycle_Appr":0.1772151899,"DutyCycle_FA":0.2218607677,"DutyCycle_Total":0.1947809879,"Aggressiveness_Align":0.2644500612,"Aggressiveness_Appr":0.3277538591,"Aggressiveness_FA":0.4564470468,"Aggressiveness_Total":0.4005371444,"Workload_Align":0.0409711362,"Workload_Appr":0.0580829624,"Workload_FA":0.1012676922,"Workload_Total":0.0780170207}
{"Flight ID":"15a8a4bc27a10ee8a5de28007b6007981e5ea2f762ba3e97b5ac308bbc23be27","Date":2024,"Scenario":"C003","Manually modified Phases":"No","Start_Align":29.4292,"Duration_Align":130.6299,"Start_Appr":160.0591,"Duration_Appr":315.6473,"Start_FA":475.7064,"Duration_FA":191.7908,"Time_Dock":667.4972,"OutOfCone_Align":65.0981,"OutOfCone_Appr":0.0,"OutOfCone_FA":0.0,"Fuel_Align":15.154,"Fuel_Appr":30.522,"Fuel_FA":18.745,"LatOffsetAtStart_Align":30.4117235618,"LatOffsetAtStart_Appr":1.2300329264,"LatOffsetAtStart_FA":0.3270244639,"LatOffsetAt_Dock":0.0711688134,"NoVisTime_Align":0.0,"NoVisTime_Appr":0.0,"NoVisTime_FA":0.0,"NoVisTime_Total":0.0,"LatOffAvg_Align":15.0285073557,"LatOffAvg_Appr":0.7353567877,"LatOffAvg_FA":0.189829208,"LatOffAvg_Total":3.4963482343,"AboveClosingVel_Align":0.0,"AboveClosingVel_Appr":80.1629,"AboveClosingVel_FA":1.2012,"AboveClosingVel_Total":81.3641,"RollRms_Align":0.6901726811,"RollRms_Appr":0.450215721,"RollRms_FA":0.584888417,"RollRms_Total":0.5482796057,"YawRms_Align":2.1522049423,"YawRms_Appr":0.307314284,"YawRms_FA":0.2767625223,"YawRms_Total":1.0087931118,"PitchRms_Align":13.0919377893,"PitchRms_Appr":1.1966585291,"PitchRms_FA":1.1164544882,"PitchRms_Total":6.0132459496,"Duration_Total":638.068,"OutOfCone_Total":65.0981,"Fuel_Total":64.421,"THCErr_Align":1,"RHCErr_Align":0,"THCErr_Appr":17,"RHCErr_Appr":12,"THCErr_FA":14,"RHCErr_FA":16,"THCErr_Total":32,"RHCErr_Total":28,"THCPSD_Align":0.0714149483,"RHCPSD_Align":0.0086587787,"THCPSD_Appr":0.0808882943,"RHCPSD_Appr":0.0088350509,"THCPSD_FA":0.0745673186,"RHCPSD_FA":0.0192958586,"THCPSD_Total":0.0794350192,"RHCPSD_Total":0.0128152738,"DutyCycle_Align":0.2423312883,"DutyCycle_Appr":0.2741116751,"DutyCycle_FA":0.2943632568,"DutyCycle_Total":0.2730696798,"Aggressiveness_Align":0.382210172,"Aggressiveness_Appr":0.4875950746,"Aggressiveness_FA":0.584583483,"Aggressiveness_Total":0.5223624552,"Workload_Align":0.0926214834,"Workload_Appr":0.1336555027,"Workload_FA":0.1720798979,"Workload_Total":0.1426413484}
{"Flight ID":"1761a52b8557eb0891871fcd7f541d8a37dd35e17f813aec89f6c8a9f72c5a2b","Date":2024,"Scenario":"C003","Manually modified Phases":"Yes","Start_Align":49.2506,"Duration_Align":187.3067,"Start_Appr":236.5573,"Duration_Appr":344.3207,"Start_FA":580.878,"Duration_FA":183.201,"Time_Dock":764.079,"OutOfCone_Align":175.4008,"OutOfCone_Appr":0.0,"OutOfCone_FA":0.0,"Fuel_Align":16.905,"Fuel_Appr":15.286,"Fuel_FA":12.934,"LatOffsetAtStart_Align":33.3146181128,"LatOffsetAtStart_Appr":13.0886106597,"LatOffsetAtStart_FA":0.2180825532,"LatOffsetAt_Dock":0.2159675902,"NoVisTime_Align":21.9843,"NoVisTime_Appr":0.0,"NoVisTime_FA":0.0,"NoVisTime_Total":21.9843,"LatOffAvg_Align":28.9776430263,"LatOffAvg_Appr":1.2259885059,"LatOffAvg_FA":0.2212551491,"LatOffAvg_Total":8.2396941548,"AboveClosingVel_Align":0.0,"AboveClosingVel_Appr":0.0,"AboveClosingVel_FA":0.0,"AboveClosingVel_Total":0.0,"RollRms_Align":0.2547038532,"RollRms_Appr":0.6579071456,"RollRms_FA":1.2614667951,"RollRms_Total":0.7958712729,"YawRms_Align":1.8006457702,"YawRms_Appr":0.4050577177,"YawRms_FA":0.2048906584,"YawRms_Total":0.9691816649,"PitchRms_Align":23.0904046433,"PitchRms_Appr":2.7650777863,"PitchRms_FA":0.9129245746,"PitchRms_Total":11.9830024915,"Duration_Total":714.8284,"OutOfCone_Total":175.4008,"Fuel_Total":45.125,"THCErr_Align":2,"RHCErr_Align":2,"THCErr_Appr":11,"RHCErr_Appr":4,"THCErr_FA":16,"RHCErr_FA":5,"THCErr_Total":29,"RHCErr_Total":11,"THCPSD_Align":0.0644283935,"RHCPSD_Align":0.0070656487,"THCPSD_Appr":0.059625617,"RHCPSD_Appr":0.0008812675,"THCPSD_FA":0.0485135141,"RHCPSD_FA":0.0035599902,"THCPSD_Total":0.0611466601,"RHCPSD_Total":0.0031950268,"DutyCycle_Align":0.1477885653,"DutyCycle_Appr":0.1255868545,"DutyCycle_FA":0.230429989,"DutyCycle_Total":0.1577162239,"Aggressiveness_Align":0.4186371583,"Aggressiveness_Appr":0.4506097652,"Aggressiveness_FA":0.5342170011,"Aggressiveness_Total":0.4862602305,"Workload_Align":0.061869785,"Workload_Appr":0.056590663,"Workload_FA":0.1230996177,"Workload_Total":0.0766911274}
{"Flight ID":"181788e8904c1c7e8d259fde9d6415feeefad86a6ba46764d0360131c820409e","Date":2024,"Scenario":"C003","Manually modified Phases":"No","Start_Align":43.3713,"Duration_Align":39.2394,"Start_Appr":82.6107,"Duration_Appr":350.0295,"Start_FA":432.6402,"Duration_FA":253.0581,"Time_Dock":685.6983,"OutOfCone_Align":39.2394,"OutOfCone_Appr":35.0325,"OutOfCone_FA":17.8246,"Fuel_Align":6.389,"Fuel_Appr":56.7,"Fuel_FA":47.521,"LatOffsetAtStart_Align":32.455320134,"LatOffsetAtStart_Appr":29.0069975178,"LatOffsetAtStart_FA":0.5713440295,"LatOffsetAt_Dock":0.4695913117,"NoVisTime_Align":4.1701,"NoVisTime_Appr":0.0,"NoVisTime_FA":0.0,"NoVisTime_Total":4.1701,"LatOffAvg_Align":32.5354284837,"LatOffAvg_Appr":4.2704900685,"LatOffAvg_FA":0.4370092389,"LatOffAvg_Total":4.5026778166,"AboveClosingVel_Align":0.0,"AboveClosingVel_Appr":0.0,"AboveClosingVel_FA":1.6976,"AboveClosingVel_Total":1.6976,"RollRms_Align":0.2251772233,"RollRms_Appr":0.2949198993,"RollRms_FA":0.2720189189,"RollRms_Total":0.2822166372,"YawRms_Align":2.4781806835,"YawRms_Appr":0.6998880944,"YawRms_FA":0.7665361268,"YawRms_Total":0.9358415494,"PitchRms_Align":25.3520764068,"PitchRms_Appr":6.6138710193,"PitchRms_FA":2.9115247545,"PitchRms_Total":8.1685202498,"Duration_Total":642.327,"OutOfCone_Total":92.0965,"Fuel_Total":110.61,"THCErr_Align":1,"RHCErr_Align":0,"THCErr_Appr":8,"RHCErr_Appr":13,"THCErr_FA":7,"RHCErr_FA":24,"THCErr_Total":16,"RHCErr_Total":37,"THCPSD_Align":0.0795257795,"RHCPSD_Align":0.003898414,"THCPSD_Appr":0.0509126133,"RHCPSD_Appr":0.0082653226,"THCPSD_FA":0.0645910592,"RHCPSD_FA":0.0238198623,"THCPSD_Total":0.0594375855,"RHCPSD_Total":0.0141300679,"DutyCycle_Align":0.3563829787,"DutyCycle_Appr":0.3447242206,"DutyCycle_FA":0.4179850125,"DutyCycle_Total":0.3742230945,"Aggressiveness_Align":0.3291124451,"Aggressiveness_Appr":0.3914839756,"Aggressiveness_FA":0.5365026758,"Aggressiveness_Total":0.455738299,"Workload_Align":0.1172900735,"Workload_Appr":0.1349540084,"Workload_FA":0.2242500776,"Workload_Total":0.1705477965}
{"Flight ID":"1b17aba2c82f394acfe1fcbdd16084ad413bbd0988c2915a809c95356a5a1e00","Date":2024,"Scenario":"C003","Manually modified Phases":"No","Start_Align":26.6098,"Duration_Align":170.5435,"Start_Appr":197.1533,"Duration_Appr":300.6832,"Start_FA":497.8365,"Duration_FA":184.3389,"Time_Dock":682.1754,"OutOfCone_Align":86.7652,"OutOfCone_Appr":0.0,"OutOfCone_FA":0.2097,"Fuel_Align":29.574,"Fuel_Appr":34.71,"Fuel_FA":17.103,"LatOffsetAtStart_Align":29.995441737,"LatOffsetAtStart_Appr":1.2259694123,"LatOffsetAtStart_FA":0.3732465673,"LatOffsetAt_Dock":1.0355761681,"NoVisTime_Align":0.0,"NoVisTime_Appr":0.0,"NoVisTime_FA":0.2097,"NoVisTime_Total":0.2097,"LatOffAvg_Align":14.9576459315,"LatOffAvg_Appr":0.497960812,"LatOffAvg_FA":0.2282053737,"LatOffAvg_Total":4.1937917531,"AboveClosingVel_Align":0.0,"AboveClosingVel_Appr":165.8889,"AboveClosingVel_FA":1.2601,"AboveClosingVel_Total":167.149,"RollRms_Align":0.2851754356,"RollRms_Appr":1.1636810604,"RollRms_FA":2.1850249638,"RollRms_Total":1.4067732746,"YawRms_Align":1.1350109012,"YawRms_Appr":0.4939998024,"YawRms_FA":0.0724385394,"YawRms_Total":0.6705062513,"PitchRms_Align":12.383868113,"PitchRms_Appr":2.0512481504,"PitchRms_FA":1.4526321937,"PitchRms_Total":6.5208898097,"Duration_Total":655.5656,"OutOfCone_Total":86.9749,"Fuel_Total":81.387,"THCErr_Align":2,"RHCErr_Align":1,"THCErr_Appr":19,"RHCErr_Appr":2,"THCErr_FA":4,"RHCErr_FA":9,"THCErr_Total":25,"RHCErr_Total":12,"THCPSD_Align":0.0684246595,"RHCPSD_Align":0.0330947627,"THCPSD_Appr":0.0540014906,"RHCPSD_Appr":0.0534170441,"THCPSD_FA":0.0143477784,"RHCPSD_FA":0.021286385,"THCPSD_Total":0.0473842217,"RHCPSD_Total":0.044484583,"DutyCycle_Align":0.2288135593,"DutyCycle_Appr":0.1676975945,"DutyCycle_FA":0.2065462754,"DutyCycle_Total":0.1941900853,"Aggressiveness_Align":0.4019671097,"Aggressiveness_Appr":0.6030437306,"Aggressiveness_FA":0.5100267788,"Aggressiveness_Total":0.5539481086,"Workload_Align":0.0919755251,"Workload_Appr":0.101128983,"Workload_FA":0.1053441315,"Workload_Total":0.1075712304}
{"Flight ID":"1dcb2c7d3e3aa5c71385317b72ebbfffa0079616833f13b869cef81959cee319","Date":2024,"Scenario":"C003","Manually modified Phases":"Yes","Start_Align":28.1055,"Duration_Align":87.7758,"Start_Appr":115.8813,"Duration_Appr":384.5222,"Start_FA":500.4035,"Duration_FA":235.0084,"Time_Dock":735.4119,"OutOfCone_Align":67.3578,"OutOfCone_Appr":0.0,"OutOfCone_FA":11.2766,"Fuel_Align":11.63,"Fuel_Appr":49.121,"Fuel_FA":28.675,"LatOffsetAtStart_Align":30.2158618775,"LatOffsetAtStart_Appr":8.2886916941,"LatOffsetAtStart_FA":1.5376586097,"LatOffsetAt_Dock":0.3895035302,"NoVisTime_Align":0.0,"NoVisTime_Appr":0.0,"NoVisTime_FA":1.2397,"NoVisTime_Total":1.2397,"LatOffAvg_Align":22.7860536148,"LatOffAvg_Appr":2.8300351782,"LatOffAvg_FA":0.5865419359,"LatOffAvg_Total":4.5659061948,"AboveClosingVel_Align":0.0,"AboveClosingVel_Appr":0.0,"AboveClosingVel_FA":6.4527,"AboveClosingVel_Total":6.4527,"RollRms_Align":0.6835360312,"RollRms_Appr":1.1902196539,"RollRms_FA":0.6720903134,"RollRms_Total":0.9890829341,"YawRms_Align":2.3255476547,"YawRms_Appr":1.039957287,"YawRms_FA":0.8841355299,"YawRms_Total":1.2328053225,"PitchRms_Align":14.935013356,"PitchRms_Appr":4.0441649385,"PitchRms_FA":4.1892898134,"PitchRms_Total":6.5150416882,"Duration_Total":707.3064,"OutOfCone_Total":78.6344,"Fuel_Total":89.426,"THCErr_Align":1,"RHCErr_Align":0,"THCErr_Appr":19,"RHCErr_Appr":25,"THCErr_FA":22,"RHCErr_FA":17,"THCErr_Total":42,"RHCErr_Total":42,"THCPSD_Align":0.0922083279,"RHCPSD_Align":0.0087306245,"THCPSD_Appr":0.0577063836,"RHCPSD_Appr":0.0145218374,"THCPSD_FA":0.0710248021,"RHCPSD_FA":0.017230674,"THCPSD_Total":0.0685262012,"RHCPSD_Total":0.0146783257,"DutyCycle_Align":0.2870588235,"DutyCycle_Appr":0.3684776762,"DutyCycle_FA":0.4,"DutyCycle_Total":0.3685288096,"Aggressiveness_Align":0.3494522683,"Aggressiveness_Appr":0.5537967187,"Aggressiveness_FA":0.7731991202,"Aggressiveness_Total":0.6254203956,"Workload_Align":0.100313357,"Workload_Appr":0.204061728,"Workload_FA":0.3092796481,"Workload_Total":0.2304854339}
{"Flight ID":"1f954d0599413f77d7e7ef655524072e036939f6686f3e0aae820af3eb0211f1","Date":2024,"Scenario":"C003","Manually modified Phases":"No","Start_Align":11.5818,"Duration_Align":111.4135,"Start_Appr":122.9953,"Duration_Appr":346.0753,"Start_FA":469.0706,"Duration_FA":217.453,"Time_Dock":686.5236,"OutOfCone_Align":73.2584,"OutOfCone_Appr":0.0,"OutOfCone_FA":0.0,"Fuel_Align":13.675,"Fuel_Appr":31.165,"Fuel_FA":17.937,"LatOffsetAtStart_Align":27.7687273025,"LatOffsetAtStart_Appr":9.045984413,"LatOffsetAtStart_FA":0.6326657885,"LatOffsetAt_Dock":0.1508144555,"NoVisTime_Align":0.0,"NoVisTime_Appr":0.0,"NoVisTime_FA":0.0,"NoVisTime_Total":0.0,"LatOffAvg_Align":19.8302536462,"LatOffAvg_Appr":1.775150881,"LatOffAvg_FA":0.2923916783,"LatOffAvg_Total":4.3066543854,"AboveClosingVel_Align":0.0,"AboveClosingVel_Appr":197.5434,"AboveClosingVel_FA":30.1366,"AboveClosingVel_Total":227.68,"RollRms_Align":0.7666632057,"RollRms_Appr":1.4555066021,"RollRms_FA":0.3911241057,"RollRms_Total":1.1109166486,"YawRms_Align":2.1115708504,"YawRms_Appr":0.8043107943,"YawRms_FA":0.843012886,"YawRms_Total":1.141071205,"PitchRms_Align":14.8182057109,"PitchRms_Appr":2.1399965676,"PitchRms_FA":1.3871947894,"PitchRms_Total":6.2872106361,"Duration_Total":674.9418,"OutOfCone_Total":73.2584,"Fuel_Total":62.777,"THCErr_Align":0,"RHCErr_Align":1,"THCErr_Appr":3,"RHCErr_Appr":8,"THCErr_FA":3,"RHCErr_FA":4,"THCErr_Total":6,"RHCErr_Total":13,"THCPSD_Align":0.0344005425,"RHCPSD_Align":0.0518570841,"THCPSD_Appr":0.0398663055,"RHCPSD_Appr":0.057098813,"THCPSD_FA":0.0268147837,"RHCPSD_FA":0.0478613165,"THCPSD_Total":0.0381081112,"RHCPSD_Total":0.0514923746,"DutyCycle_Align":0.061682243,"DutyCycle_Appr":0.1261370528,"DutyCycle_FA":0.1409135083,"DutyCycle_Total":0.1198257081,"Aggressiveness_Align":0.2773966607,"Aggressiveness_Appr":0.3954342227,"Aggressiveness_FA":0.4603456386,"Aggressiveness_Total":0.4133186012,"Workload_Align":0.0171104482,"Workload_Appr":0.0498789074,"Workload_FA":0.0648689189,"Workload_Total":0.049526194}
{"Flight ID":"222323e114c212bcd72223192f972adb16ec27d685abb31d3d78b0412b3366c4","Date":2018,"Scenario":"C003","Manually modified Phases":"No","Start_Align":8.6114,"Duration_Align":1.6079,"Start_Appr":10.2193,"Duration_Appr":320.2876,"Start_FA":330.5069,"Duration_FA":181.7523,"Time_Dock":512.2592,"OutOfCone_Align":1.6079,"OutOfCone_Appr":29.6043,"OutOfCone_FA":0.0,"Fuel_Align":0.313,"Fuel_Appr":21.294,"Fuel_FA":7.079,"LatOffsetAtStart_Align":27.3230456026,"LatOffsetAtStart_Appr":27.5204616604,"LatOffsetAtStart_FA":0.6886160033,"LatOffsetAt_Dock":0.0139283883,"NoVisTime_Align":0.0,"NoVisTime_Appr":0.0,"NoVisTime_FA":0.0,"NoVisTime_Total":0.0,"LatOffAvg_Align":27.4184406208,"LatOffAvg_Appr":4.0440507973,"LatOffAvg_FA":0.2480640102,"LatOffAvg_Total":2.749256812,"AboveClosingVel_Align":0.0,"AboveClosingVel_Appr":118.6777,"AboveClosingVel_FA":27.2216,"AboveClosingVel_Total":145.8993,"RollRms_Align":0.142,"RollRms_Appr":1.9626459726,"RollRms_FA":0.5065708451,"RollRms_Total":1.5945248959,"YawRms_Align":2.458,"YawRms_Appr":1.3351407965,"YawRms_FA":0.7990752596,"YawRms_Total":1.1761999495,"PitchRms_Align":22.6340927916,"PitchRms_Appr":6.6271928584,"PitchRms_FA":0.7545563953,"PitchRms_Total":5.4568956457,"Duration_Total":503.6478,"OutOfCone_Total":31.2122,"Fuel_Total":28.686,"THCErr_Align":0,"RHCErr_Align":0,"THCErr_Appr":12,"RHCErr_Appr":33,"THCErr_FA":5,"RHCErr_FA":15,"THCErr_Total":17,"RHCErr_Total":48,"THCPSD_Align":0.0005636291,"RHCPSD_Align":0.0,"THCPSD_Appr":0.0372010398,"RHCPSD_Appr":0.0093510874,"THCPSD_FA":0.0226268904,"RHCPSD_FA":0.0018883674,"THCPSD_Total":0.0304068118,"RHCPSD_Total":0.00637185,"DutyCycle_Align":0.5,"DutyCycle_Appr":0.2610062893,"DutyCycle_FA":0.2039911308,"DutyCycle_Total":0.2408,"Aggressiveness_Align":0.2075325334,"Aggressiveness_Appr":0.5019882834,"Aggressiveness_FA":0.4072176581,"Aggressiveness_Total":0.4951858034,"Workload_Align":0.1037662667,"Workload_Appr":0.1310220991,"Workload_FA":0.0830687906,"Workload_Total":0.1192407415}
{"Flight ID":"2452e3fb3b8c5262c106bec5bbd6791ae6f2a7bffb1e69e02f09313641e64219","Date":2024,"Scenario":"C003","Manually modified Phases":"No","Start_Align":43.4319,"Duration_Align":122.0966,"Start_Appr":165.5285,"Duration_Appr":429.3819,"Start_FA":594.9104,"Duration_FA":275.3707,"Time_Dock":870.2811,"OutOfCone_Align":104.5776,"OutOfCone_Appr":37.3472,"OutOfCone_FA":0.0,"Fuel_Align":27.153,"Fuel_Appr":72.985,"Fuel_FA":38.257,"LatOffsetAtStart_Align":32.4661032463,"LatOffsetAtStart_Appr":8.9164163765,"LatOffsetAtStart_FA":1.1458280848,"LatOffsetAt_Dock":0.1442775104,"NoVisTime_Align":8.6392,"NoVisTime_Appr":0.0,"NoVisTime_FA":0.0,"NoVisTime_Total":8.6392,"LatOffAvg_Align":25.0960411363,"LatOffAvg_Appr":4.7815396819,"LatOffAvg_FA":0.5623949785,"LatOffAvg_Total":6.3866763536,"AboveClosingVel_Align":0.0,"AboveClosingVel_Appr":69.2468,"AboveClosingVel_FA":69.5155,"AboveClosingVel_Total":138.7623,"RollRms_Align":0.4662838695,"RollRms_Appr":1.1954544185,"RollRms_FA":1.8059343071,"RollRms_Total":1.3633289957,"YawRms_Align":1.5824990452,"YawRms_Appr":0.9771854951,"YawRms_FA":1.0367699301,"YawRms_Total":1.1064094509,"PitchRms_Align":16.7849208765,"PitchRms_Appr":6.843853385,"PitchRms_FA":2.2866750208,"PitchRms_Total":8.2330627518,"Duration_Total":826.8492,"OutOfCone_Total":141.9248,"Fuel_Total":138.395,"THCErr_Align":1,"RHCErr_Align":0,"THCErr_Appr":33,"RHCErr_Appr":20,"THCErr_FA":24,"RHCErr_FA":10,"THCErr_Total":58,"RHCErr_Total":30,"THCPSD_Align":0.0821858088,"RHCPSD_Align":0.0917271719,"THCPSD_Appr":0.096066899,"RHCPSD_Appr":0.057105936,"THCPSD_FA":0.0915783809,"RHCPSD_FA":0.0581128648,"THCPSD_Total":0.0937567338,"RHCPSD_Total":0.0623067784,"DutyCycle_Align":0.2516891892,"DutyCycle_Appr":0.2045235804,"DutyCycle_FA":0.2054176072,"DutyCycle_Total":0.2115528882,"Aggressiveness_Align":0.4923113628,"Aggressiveness_Appr":0.5969644173,"Aggressiveness_FA":0.6606261637,"Aggressiveness_Total":0.6216033897,"Workload_Align":0.1239094477,"Workload_Appr":0.1220933,"Workload_FA":0.1357042458,"Workload_Total":0.1315019924}
{"Flight ID":"24e6420606515442d7f367a80934a00e2deb19f4ef1f163af4eb32828c282d50","Date":2024,"Scenario":"C003","Manually modified Phases":"No","Start_Align":51.9686,"Duration_Align":97.3401,"Start_Appr":149.3087,"Duration_Appr":433.1945,"Start_FA":582.5032,"Duration_FA":440.5197,"Time_Dock":1023.0229,"OutOfCone_Align":74.2012,"OutOfCone_Appr":0.0,"OutOfCone_FA":0.0,"Fuel_Align":24.761,"Fuel_Appr":66.363,"Fuel_FA":82.593,"LatOffsetAtStart_Align":33.7126501035,"LatOffsetAtStart_Appr":3.9711955379,"LatOffsetAtStart_FA":0.2299304243,"LatOffsetAt_Dock":0.2514358765,"NoVisTime_Align":9.3186,"NoVisTime_Appr":0.8494,"NoVisTime_FA":0.0,"NoVisTime_Total":10.168,"LatOffAvg_Align":24.8503957114,"LatOffAvg_Appr":2.2532662431,"LatOffAvg_FA":0.3188134897,"LatOffAvg_Total":3.6824421049,"AboveClosingVel_Align":0.0,"AboveClosingVel_Appr":0.0,"AboveClosingVel_FA":0.0,"AboveClosingVel_Total":0.0,"RollRms_Align":0.4353350556,"RollRms_Appr":0.3560396089,"RollRms_FA":1.0456044689,"RollRms_Total":0.753435945,"YawRms_Align":1.7648229946,"YawRms_Appr":0.5493692208,"YawRms_FA":0.7190066641,"YawRms_Total":0.8274582888,"PitchRms_Align":20.2594567784,"PitchRms_Appr":3.9900014199,"PitchRms_FA":1.4070643427,"PitchRms_Total":7.0561128306,"Duration_Total":971.0543,"OutOfCone_Total":74.2012,"Fuel_Total":173.717,"THCErr_Align":0,"RHCErr_Align":1,"THCErr_Appr":23,"RHCErr_Appr":17,"THCErr_FA":17,"RHCErr_FA":54,"THCErr_Total":40,"RHCErr_Total":72,"THCPSD_Align":0.0925322297,"RHCPSD_Align":0.0976609974,"THCPSD_Appr":0.0835967944,"RHCPSD_Appr":0.0636832399,"THCPSD_FA":0.0636174416,"RHCPSD_FA":0.101342493,"THCPSD_Total":0.0746023786,"RHCPSD_Total":0.083519096,"DutyCycle_Align":0.229787234,"DutyCycle_Appr":0.2493970092,"DutyCycle_FA":0.355801637,"DutyCycle_Total":0.295021645,"Aggressiveness_Align":0.4031339666,"Aggressiveness_Appr":0.6369701123,"Aggressiveness_FA":0.7886457167,"Aggressiveness_Total":0.7141389936,"Workload_Align":0.0926350391,"Workload_Appr":0.1588584409,"Workload_FA":0.280601437,"Workload_Total":0.2106864607}
{"Flight ID":"2520e7d1e5666bdf9a8a2217e791f09e76688c8f27cf8c53c18ceb1fb9ba58eb","Date":2024,"Scenario":"C003","Manually modified Phases":"No","Start_Align":22.6131,"Duration_Align":78.2653,"Start_Appr":100.8784,"Duration_Appr":310.391,"Start_FA":411.2694,"Duration_FA":184.6614,"Time_Dock":595.9308,"OutOfCone_Align":78.2653,"OutOfCone_Appr":70.3593,"OutOfCone_FA":0.0,"Fuel_Align":12.966,"Fuel_Appr":47.597,"Fuel_FA":29.731,"LatOffsetAtStart_Align":29.4050976873,"LatOffsetAtStart_Appr":26.6225391163,"LatOffsetAtStart_FA":0.9996089235,"LatOffsetAt_Dock":0.1874166481,"NoVisTime_Align":0.0,"NoVisTime_Appr":0.0,"NoVisTime_FA":0.0,"NoVisTime_Total":0.0,"LatOffAvg_Align":29.8054104894,"LatOffAvg_Appr":5.9212772777,"LatOffAvg_FA":0.3813921425,"LatOffAvg_Total":7.4184819344,"AboveClosingVel_Align":0.0,"AboveClosingVel_Appr":65.3725,"AboveClosingVel_FA":14.1265,"AboveClosingVel_Total":79.499,"RollRms_Align":0.4412034166,"RollRms_Appr":0.5744004112,"RollRms_FA":1.9847680572,"RollRms_Total":1.2123339984,"YawRms_Align":2.3504647933,"YawRms_Appr":0.8239041496,"YawRms_FA":1.0779710213,"YawRms_Total":1.224087213,"PitchRms_Align":17.9820206454,"PitchRms_Appr":7.5323858502,"PitchRms_FA":1.5572506812,"PitchRms_Total":8.7101330675,"Duration_Total":573.3177,"OutOfCone_Total":148.6246,"Fuel_Total":90.294,"THCErr_Align":0,"RHCErr_Align":3,"THCErr_Appr":6,"RHCErr_Appr":2,"THCErr_FA":3,"RHCErr_FA":12,"THCErr_Total":9,"RHCErr_Total":17,"THCPSD_Align":0.0557234599,"RHCPSD_Align":0.0365250217,"THCPSD_Appr":0.0348766122,"RHCPSD_Appr":0.0125003529,"THCPSD_FA":0.0267323124,"RHCPSD_FA":0.0242381702,"THCPSD_Total":0.0393328108,"RHCPSD_Total":0.0189761793,"DutyCycle_Align":0.3590425532,"DutyCycle_Appr":0.3553162853,"DutyCycle_FA":0.4181818182,"DutyCycle_Total":0.3756382203,"Aggressiveness_Align":0.5314649881,"Aggressiveness_Appr":0.4854324229,"Aggressiveness_FA":0.5660066563,"Aggressiveness_Total":0.532819437,"Workload_Align":0.1908185463,"Workload_Appr":0.1724820453,"Workload_FA":0.2366936926,"Workload_Total":0.200147345}
{"Flight ID":"25d9deaa1e55c3fd19c31ee0966c7e709166b73f378e3212fa18aba41ef52b09","Date":2024,"Scenario":"C003","Manually modified Phases":"Yes","Start_Align":31.3555,"Duration_Align":174.7172,"Start_Appr":206.0727,"Duration_Appr":429.8841,"Start_FA":635.9568,"Duration_FA":243.94,"Time_Dock":879.8968,"OutOfCone_Align":137.0894,"OutOfCone_Appr":15.2835,"OutOfCone_FA":22.6159,"Fuel_Align":43.812,"Fuel_Appr":70.464,"Fuel_FA":31.047,"LatOffsetAtStart_Align":30.6948767223,"LatOffsetAtStart_Appr":11.9939235032,"LatOffsetAtStart_FA":0.448830703,"LatOffsetAt_Dock":0.785611227,"NoVisTime_Align":0.0,"NoVisTime_Appr":0.0,"NoVisTime_FA":21.7669,"NoVisTime_Total":21.7669,"LatOffAvg_Align":25.4997120671,"LatOffAvg_Appr":4.0318906217,"LatOffAvg_FA":0.8330918562,"LatOffAvg_Total":7.5474357506,"AboveClosingVel_Align":0.0,"AboveClosingVel_Appr":0.0,"AboveClosingVel_FA":0.0,"AboveClosingVel_Total":0.0,"RollRms_Align":0.3591006563,"RollRms_Appr":2.2873503047,"RollRms_FA":2.6665169493,"RollRms_Total":2.1718506942,"YawRms_Align":1.8101252788,"YawRms_Appr":1.7606131712,"YawRms_FA":0.6534962527,"YawRms_Total":1.5393984456,"PitchRms_Align":19.0757942718,"PitchRms_Appr":3.877875751,"PitchRms_FA":4.2970145642,"PitchRms_Total":9.383768744,"Duration_Total":848.5413,"OutOfCone_Total":174.9888,"Fuel_Total":145.323,"THCErr_Align":2,"RHCErr_Align":14,"THCErr_Appr":7,"RHCErr_Appr":5,"THCErr_FA":18,"RHCErr_FA":9,"THCErr_Total":27,"RHCErr_Total":28,"THCPSD_Align":0.0622565696,"RHCPSD_Align":0.0254594958,"THCPSD_Appr":0.0469442226,"RHCPSD_Appr":0.0234320651,"THCPSD_FA":0.0723868639,"RHCPSD_FA":0.0233017669,"THCPSD_Total":0.058527052,"RHCPSD_Total":0.0260612044,"DutyCycle_Align":0.5212765957,"DutyCycle_Appr":0.3636801541,"DutyCycle_FA":0.3191489362,"DutyCycle_Total":0.3832072248,"Aggressiveness_Align":0.4851281387,"Aggressiveness_Appr":0.5391520669,"Aggressiveness_FA":0.627380377,"Aggressiveness_Total":0.583322833,"Workload_Align":0.2528859447,"Workload_Appr":0.1960789068,"Workload_FA":0.2002277799,"Workload_Total":0.223533524}
{"Flight ID":"270d4bf52fbf46ebbe9a7b7cae561c2f6e4b0cdc9324e5cd649b28f9111b9957","Date":2024,"Scenario":"C003","Manually modified Phases":"No","Start_Align":53.5032,"Duration_Align":458.2889,"Start_Appr":511.7921,"Duration_Appr":603.0163,"Start_FA":1114.8084,"Duration_FA":153.6362,"Time_Dock":1268.4446,"OutOfCone_Align":212.8282,"OutOfCone_Appr":0.0,"OutOfCone_FA":0.0,"Fuel_Align":57.868,"Fuel_Appr":83.304,"Fuel_FA":18.811,"LatOffsetAtStart_Align":33.9367558408,"LatOffsetAtStart_Appr":11.7589105363,"LatOffsetAtStart_FA":1.329800737,"LatOffsetAt_Dock":0.3151539306,"NoVisTime_Align":108.9082,"NoVisTime_Appr":46.6964,"NoVisTime_FA":4.2043,"NoVisTime_Total":159.8089,"LatOffAvg_Align":18.5467273466,"LatOffAvg_Appr":4.5118940737,"LatOffAvg_FA":0.7440673394,"LatOffAvg_Total":9.3307189058,"AboveClosingVel_Align":0.0,"AboveClosingVel_Appr":70.5035,"AboveClosingVel_FA":34.4509,"AboveClosingVel_Total":104.9544,"RollRms_Align":2.9006725782,"RollRms_Appr":2.8830213853,"RollRms_FA":0.9053664064,"RollRms_Total":2.7208753562,"YawRms_Align":1.8059967891,"YawRms_Appr":2.449575566,"YawRms_FA":3.1059271108,"YawRms_Total":2.3298256411,"PitchRms_Align":12.3586058598,"PitchRms_Appr":5.0061181298,"PitchRms_FA":2.5897625361,"PitchRms_Total":8.4208394828,"Duration_Total":1214.9414,"OutOfCone_Total":212.8282,"Fuel_Total":159.983,"THCErr_Align":8,"RHCErr_Align":3,"THCErr_Appr":15,"RHCErr_Appr":19,"THCErr_FA":14,"RHCErr_FA":10,"THCErr_Total":37,"RHCErr_Total":32,"THCPSD_Align":0.0774526023,"RHCPSD_Align":0.0072704683,"THCPSD_Appr":0.0853564069,"RHCPSD_Appr":0.0151340296,"THCPSD_FA":0.0926813065,"RHCPSD_FA":0.0076412407,"THCPSD_Total":0.0848758596,"RHCPSD_Total":0.0111896047,"DutyCycle_Align":0.127566623,"DutyCycle_Appr":0.1710395218,"DutyCycle_FA":0.260756193,"DutyCycle_Total":0.165650239,"Aggressiveness_Align":0.3334995125,"Aggressiveness_Appr":0.4201854786,"Aggressiveness_FA":0.5577228501,"Aggressiveness_Total":0.4366621853,"Workload_Align":0.0425434066,"Workload_Appr":0.0718683233,"Workload_FA":0.1454296871,"Workload_Total":0.0723331953}
{"Flight ID":"274148a2f6542fe25343369f63904f7cd3e15b8d47b7e658bebfa97b3daf9395","Date":2024,"Scenario":"C003","Manually modified Phases":"No","Start_Align":27.1635,"Duration_Align":139.9053,"Start_Appr":167.0688,"Duration_Appr":323.295,"Start_FA":490.3638,"Duration_FA":199.1506,"Time_Dock":689.5144,"OutOfCone_Align":50.2832,"OutOfCone_Appr":0.0,"OutOfCone_FA":0.0,"Fuel_Align":30.495,"Fuel_Appr":40.131,"Fuel_FA":16.787,"LatOffsetAtStart_Align":30.0776747273,"LatOffsetAtStart_Appr":0.5115906567,"LatOffsetAtStart_FA":0.2217115243,"LatOffsetAt_Dock":0.0845044378,"NoVisTime_Align":0.0,"NoVisTime_Appr":0.0,"NoVisTime_FA":0.0,"NoVisTime_Total":0.0,"LatOffAvg_Align":11.1433601967,"LatOffAvg_Appr":0.596384232,"LatOffAvg_FA":0.1310745664,"LatOffAvg_Total":2.6973542561,"AboveClosingVel_Align":0.0,"AboveClosingVel_Appr":23.9572,"AboveClosingVel_FA":0.0,"AboveClosingVel_Total":23.9572,"RollRms_Align":0.690609682,"RollRms_Appr":1.2461433819,"RollRms_FA":1.586127322,"RollRms_Total":1.2694076942,"YawRms_Align":1.1607435897,"YawRms_Appr":0.3036227624,"YawRms_FA":0.1356553508,"YawRms_Total":0.580279905,"PitchRms_Align":10.5855052998,"PitchRms_Appr":0.8089565279,"PitchRms_FA":0.4536735678,"PitchRms_Total":4.9169321967,"Duration_Total":662.3509,"OutOfCone_Total":50.2832,"Fuel_Total":87.413,"THCErr_Align":1,"RHCErr_Align":9,"THCErr_Appr":12,"RHCErr_Appr":25,"THCErr_FA":7,"RHCErr_FA":10,"THCErr_Total":20,"RHCErr_Total":44,"THCPSD_Align":0.0890924064,"RHCPSD_Align":0.0324975816,"THCPSD_Appr":0.0834540421,"RHCPSD_Appr":0.0116077458,"THCPSD_FA":0.0488769226,"RHCPSD_FA":0.0030846699,"THCPSD_Total":0.0745609282,"RHCPSD_Total":0.0134329368,"DutyCycle_Align":0.3916913947,"DutyCycle_Appr":0.2895752896,"DutyCycle_FA":0.2484143763,"DutyCycle_Total":0.2986767486,"Aggressiveness_Align":0.4833480764,"Aggressiveness_Appr":0.5280519515,"Aggressiveness_FA":0.4341856807,"Aggressiveness_Total":0.5239278377,"Workload_Align":0.1893232821,"Workload_Appr":0.1529107968,"Workload_FA":0.1078579651,"Workload_Total":0.1564850631}
{"Flight ID":"2c51465334a5fe26da08766b0b78f47c9ea75574df0d9d7d60fed82005de5495","Date":2024,"Scenario":"C003","Manually modified Phases":"Yes","Start_Align":55.4263,"Duration_Align":167.8409,"Start_Appr":223.2672,"Duration_Appr":412.1656,"Start_FA":635.4328,"Duration_FA":172.8335,"Time_Dock":808.2663,"OutOfCone_Align":94.9501,"OutOfCone_Appr":0.0,"OutOfCone_FA":0.0,"Fuel_Align":37.172,"Fuel_Appr":60.898,"Fuel_FA":25.596,"LatOffsetAtStart_Align":34.2170697167,"LatOffsetAtStart_Appr":6.2648214659,"LatOffsetAtStart_FA":0.6280676715,"LatOffsetAt_Dock":0.2033937069,"NoVisTime_Align":15.906,"NoVisTime_Appr":0.0,"NoVisTime_FA":0.0,"NoVisTime_Total":15.906,"LatOffAvg_Align":20.1233945278,"LatOffAvg_Appr":2.3670257275,"LatOffAvg_FA":0.4340414849,"LatOffAvg_Total":5.9063767878,"AboveClosingVel_Align":0.0,"AboveClosingVel_Appr":0.0,"AboveClosingVel_FA":40.2122,"AboveClosingVel_Total":40.2122,"RollRms_Align":8.9969812669,"RollRms_Appr":3.8075213583,"RollRms_FA":1.0327701739,"RollRms_Total":5.1321299927,"YawRms_Align":1.7209053096,"YawRms_Appr":0.5076008962,"YawRms_FA":0.4088245555,"YawRms_Total":0.9180296118,"PitchRms_Align":19.2498393033,"PitchRms_Appr":1.8868710169,"PitchRms_FA":1.3739084745,"PitchRms_Total":9.2402833786,"Duration_Total":752.84,"OutOfCone_Total":94.9501,"Fuel_Total":123.666,"THCErr_Align":0,"RHCErr_Align":11,"THCErr_Appr":5,"RHCErr_Appr":20,"THCErr_FA":6,"RHCErr_FA":6,"THCErr_Total":11,"RHCErr_Total":37,"THCPSD_Align":0.0844854979,"RHCPSD_Align":0.0711891164,"THCPSD_Appr":0.0832121132,"RHCPSD_Appr":0.0445125169,"THCPSD_FA":0.0771141924,"RHCPSD_FA":0.0462092237,"THCPSD_Total":0.0789462866,"RHCPSD_Total":0.0463026871,"DutyCycle_Align":0.3142857143,"DutyCycle_Appr":0.1984810127,"DutyCycle_FA":0.2383292383,"DutyCycle_Total":0.2331663884,"Aggressiveness_Align":0.5168164834,"Aggressiveness_Appr":0.4833644731,"Aggressiveness_FA":0.4566955383,"Aggressiveness_Total":0.4988695422,"Workload_Align":0.1624280376,"Workload_Appr":0.0959386701,"Workload_FA":0.1088438998,"Workload_Total":0.1163196094}
{"Flight ID":"320d8088ed700a40d577c9b66eb828f1d570899549bc7031fef3581222e3a7e4","Date":2024,"Scenario":"C003","Manually modified Phases":"No","Start_Align":28.4653,"Duration_Align":26.7873,"Start_Appr":55.2526,"Duration_Appr":365.0752,"Start_FA":420.3278,"Duration_FA":177.706,"Time_Dock":598.0338,"OutOfCone_Align":26.7873,"OutOfCone_Appr":37.5085,"OutOfCone_FA":0.0,"Fuel_Align":3.83,"Fuel_Appr":34.707,"Fuel_FA":13.808,"LatOffsetAtStart_Align":30.2697130479,"LatOffsetAtStart_Appr":31.40946472,"LatOffsetAtStart_FA":0.9660046584,"LatOffsetAt_Dock":0.065,"NoVisTime_Align":0.0,"NoVisTime_Appr":0.0,"NoVisTime_FA":0.0,"NoVisTime_Total":0.0,"LatOffAvg_Align":31.7348643792,"LatOffAvg_Appr":4.0489459435,"LatOffAvg_FA":0.288978773,"LatOffAvg_Total":4.1999422872,"AboveClosingVel_Align":0.0,"AboveClosingVel_Appr":32.5397,"AboveClosingVel_FA":0.0,"AboveClosingVel_Total":32.5397,"RollRms_Align":0.2281225531,"RollRms_Appr":1.0640063479,"RollRms_FA":0.4942436841,"RollRms_Total":0.8973818646,"YawRms_Align":2.465801975,"YawRms_Appr":1.4849281393,"YawRms_FA":0.1759207644,"YawRms_Total":1.3095703204,"PitchRms_Align":22.3873209368,"PitchRms_Appr":4.3436690993,"PitchRms_FA":1.2645010319,"PitchRms_Total":6.0383247818,"Duration_Total":569.5685,"OutOfCone_Total":64.2958,"Fuel_Total":52.345,"THCErr_Align":0,"RHCErr_Align":0,"THCErr_Appr":11,"RHCErr_Appr":10,"THCErr_FA":6,"RHCErr_FA":6,"THCErr_Total":17,"RHCErr_Total":16,"THCPSD_Align":0.0203277205,"RHCPSD_Align":0.0062371668,"THCPSD_Appr":0.0613702099,"RHCPSD_Appr":0.0074699494,"THCPSD_FA":0.0430687196,"RHCPSD_FA":0.0021239166,"THCPSD_Total":0.0561975584,"RHCPSD_Total":0.0060767921,"DutyCycle_Align":0.2325581395,"DutyCycle_Appr":0.2096496267,"DutyCycle_FA":0.2021403092,"DutyCycle_Total":0.2076724456,"Aggressiveness_Align":0.2316835435,"Aggressiveness_Appr":0.4512273845,"Aggressiveness_FA":0.4460474091,"Aggressiveness_Total":0.4544660821,"Workload_Align":0.0538798938,"Workload_Appr":0.0945996527,"Workload_FA":0.0901641612,"Workload_Total":0.0943800827}
{"Flight ID":"344be2ce85d596893997fda9201f4eef7bbd39259198b8473c4359dc08af448f","Date":2024,"Scenario":"C003","Manually modified Phases":"No","Start_Align":46.4216,"Duration_Align":1010.0998,"Start_Appr":1056.5214,"Duration_Appr":402.4454,"Start_FA":1458.9668,"Duration_FA":290.0401,"Time_Dock":1749.0069,"OutOfCone_Align":369.8924,"OutOfCone_Appr":0.0,"OutOfCone_FA":0.0,"Fuel_Align":154.617,"Fuel_Appr":57.148,"Fuel_FA":48.466,"LatOffsetAtStart_Align":32.9040432926,"LatOffsetAtStart_Appr":0.3813200755,"LatOffsetAtStart_FA":0.2300978053,"LatOffsetAt_Dock":0.1051522705,"NoVisTime_Align":3.3049,"NoVisTime_Appr":0.0,"NoVisTime_FA":0.0,"NoVisTime_Total":3.3049,"LatOffAvg_Align":15.2741700618,"LatOffAvg_Appr":0.451941949,"LatOffAvg_FA":0.1788170406,"LatOffAvg_Total":9.1839284042,"AboveClosingVel_Align":0.0,"AboveClosingVel_Appr":0.0,"AboveClosingVel_FA":0.0,"AboveClosingVel_Total":0.0,"RollRms_Align":12.7275793536,"RollRms_Appr":1.5592920311,"RollRms_FA":1.3079201255,"RollRms_Total":9.8391225012,"YawRms_Align":3.6144240987,"YawRms_Appr":0.1883091476,"YawRms_FA":0.5165008159,"YawRms_Total":2.7912479005,"PitchRms_Align":12.201184951,"PitchRms_Appr":1.3152099061,"PitchRms_FA":1.0002662216,"PitchRms_Total":9.4206716904,"Duration_Total":1702.5853,"OutOfCone_Total":369.8924,"Fuel_Total":260.231,"THCErr_Align":21,"RHCErr_Align":96,"THCErr_Appr":13,"RHCErr_Appr":51,"THCErr_FA":4,"RHCErr_FA":35,"THCErr_Total":38,"RHCErr_Total":182,"THCPSD_Align":0.0639925327,"RHCPSD_Align":0.0559770537,"THCPSD_Appr":0.0389547577,"RHCPSD_Appr":0.0380412559,"THCPSD_FA":0.0216765919,"RHCPSD_FA":0.0421432015,"THCPSD_Total":0.0521774035,"RHCPSD_Total":0.0485808741,"DutyCycle_Align":0.3152556407,"DutyCycle_Appr":0.3985544657,"DutyCycle_FA":0.5003599712,"DutyCycle_Total":0.3664337379,"Aggressiveness_Align":0.4973237738,"Aggressiveness_Appr":0.4550331631,"Aggressiveness_FA":0.4873956558,"Aggressiveness_Total":0.4973058104,"Workload_Align":0.1567841249,"Workload_Appr":0.1813554992,"Workload_FA":0.2438732763,"Workload_Total":0.182229627}
{"Flight ID":"36d0c1bc56d58ca3f36f75cc112355dadc0bb4641ba7c455065b9bde684e3149","Date":2024,"Scenario":"C003","Manually modified Phases":"Yes","Start_Align":41.6519,"Duration_Align":141.5345,"Start_Appr":183.1864,"Duration_Appr":320.866,"Start_FA":504.0524,"Duration_FA":206.47,"Time_Dock":710.5224,"OutOfCone_Align":94.5757,"OutOfCone_Appr":0.0,"OutOfCone_FA":0.0,"Fuel_Align":31.471,"Fuel_Appr":35.813,"Fuel_FA":37.717,"LatOffsetAtStart_Align":32.2050333954,"LatOffsetAtStart_Appr":0.4113259048,"LatOffsetAtStart_FA":0.2514676918,"LatOffsetAt_Dock":0.1494590245,"NoVisTime_Align":2.4712,"NoVisTime_Appr":0.0,"NoVisTime_FA":0.0,"NoVisTime_Total":2.4712,"LatOffAvg_Align":20.9747308684,"LatOffAvg_Appr":0.8454143627,"LatOffAvg_FA":0.1565075436,"LatOffAvg_Total":4.8875334189,"AboveClosingVel_Align":0.0,"AboveClosingVel_Appr":21.7599,"AboveClosingVel_FA":0.0,"AboveClosingVel_Total":21.7599,"RollRms_Align":0.1489216433,"RollRms_Appr":0.849146434,"RollRms_FA":1.9259322749,"RollRms_Total":1.2227285077,"YawRms_Align":0.9502286035,"YawRms_Appr":0.3719018924,"YawRms_FA":0.2627590104,"YawRms_Total":0.52778637,"PitchRms_Align":18.5754526334,"PitchRms_Appr":1.3460464538,"PitchRms_FA":1.0135794686,"PitchRms_Total":8.6091592058,"Duration_Total":668.8705,"OutOfCone_Total":94.5757,"Fuel_Total":105.001,"THCErr_Align":0,"RHCErr_Align":3,"THCErr_Appr":8,"RHCErr_Appr":8,"THCErr_FA":1,"RHCErr_FA":9,"THCErr_Total":9,"RHCErr_Total":20,"THCPSD_Align":0.088606678,"RHCPSD_Align":0.018287699,"THCPSD_Appr":0.0475097392,"RHCPSD_Appr":0.0094451578,"THCPSD_FA":0.0155104045,"RHCPSD_FA":0.0161738517,"THCPSD_Total":0.0445097011,"RHCPSD_Total":0.0124844122,"DutyCycle_Align":0.4726735598,"DutyCycle_Appr":0.2074122237,"DutyCycle_FA":0.3016194332,"DutyCycle_Total":0.2919138308,"Aggressiveness_Align":0.4378246949,"Aggressiveness_Appr":0.3655182674,"Aggressiveness_FA":0.3817842277,"Aggressiveness_Total":0.397743398,"Workload_Align":0.2069481571,"Workload_Appr":0.0758129566,"Workload_FA":0.1151535424,"Workload_Total":0.116106799}
{"Flight ID":"3962e560c1ec91856686310e5a726bfa3960a7416ffe3d7ea4d49d1aba277df7","Date":2018,"Scenario":"C003","Manually modified Phases":"No","Start_Align":8.8296,"Duration_Align":200.0835,"Start_Appr":208.9131,"Duration_Appr":413.306,"Start_FA":622.2191,"Duration_FA":118.305,"Time_Dock":740.5241,"OutOfCone_Align":89.9513,"OutOfCone_Appr":0.0,"OutOfCone_FA":0.0,"Fuel_Align":16.394,"Fuel_Appr":29.433,"Fuel_FA":4.011,"LatOffsetAtStart_Align":27.356235578,"LatOffsetAtStart_Appr":11.5244675799,"LatOffsetAtStart_FA":0.3198890433,"LatOffsetAt_Dock":0.1711286066,"NoVisTime_Align":0.0,"NoVisTime_Appr":0.0,"NoVisTime_FA":0.0,"NoVisTime_Total":0.0,"LatOffAvg_Align":16.3784717322,"LatOffAvg_Appr":4.5158426279,"LatOffAvg_FA":0.3948924472,"LatOffAvg_Total":7.0956542364,"AboveClosingVel_Align":0.0,"AboveClosingVel_Appr":100.5639,"AboveClosingVel_FA":118.305,"AboveClosingVel_Total":218.8689,"RollRms_Align":0.3030323823,"RollRms_Appr":1.2793102403,"RollRms_FA":0.7056396943,"RollRms_Total":1.0148817536,"YawRms_Align":2.172745012,"YawRms_Appr":0.6578512455,"YawRms_FA":0.8943817514,"YawRms_Total":1.2904707724,"PitchRms_Align":11.5701739746,"PitchRms_Appr":4.3279256421,"PitchRms_FA":1.6173773384,"PitchRms_Total":6.9013962917,"Duration_Total":731.6945,"OutOfCone_Total":89.9513,"Fuel_Total":49.838,"THCErr_Align":3,"RHCErr_Align":0,"THCErr_Appr":6,"RHCErr_Appr":7,"THCErr_FA":3,"RHCErr_FA":2,"THCErr_Total":12,"RHCErr_Total":9,"THCPSD_Align":0.0402630905,"RHCPSD_Align":0.0035478651,"THCPSD_Appr":0.0574869311,"RHCPSD_Appr":0.0103750033,"THCPSD_FA":0.025707305,"RHCPSD_FA":0.0009959976,"THCPSD_Total":0.0505117586,"RHCPSD_Total":0.0072118602,"DutyCycle_Align":0.1076458753,"DutyCycle_Appr":0.1106237817,"DutyCycle_FA":0.1499148211,"DutyCycle_Total":0.1156069364,"Aggressiveness_Align":0.2441391506,"Aggressiveness_Appr":0.3140424115,"Aggressiveness_FA":0.2997515147,"Aggressiveness_Total":0.3165136122,"Workload_Align":0.0262805725,"Workload_Appr":0.0347405592,"Workload_FA":0.0449371947,"Workload_Total":0.036591169}
{"Flight ID":"3d829cb34f833590eb7707fecd9c44cb8b32318f603af1e6e04ffe9abd125269","Date":2024,"Scenario":"C003","Manually modified Phases":"Yes","Start_Align":26.5851,"Duration_Align":118.543,"Start_Appr":145.1281,"Duration_Appr":329.6183,"Start_FA":474.7464,"Duration_FA":202.1081,"Time_Dock":676.8545,"OutOfCone_Align":118.543,"OutOfCone_Appr":25.3538,"OutOfCone_FA":0.0,"Fuel_Align":11.988,"Fuel_Appr":22.916,"Fuel_FA":21.868,"LatOffsetAtStart_Align":29.9925664957,"LatOffsetAtStart_Appr":18.2020649653,"LatOffsetAtStart_FA":0.1803136157,"LatOffsetAt_Dock":0.3090792779,"NoVisTime_Align":29.7703,"NoVisTime_Appr":0.0,"NoVisTime_FA":0.0,"NoVisTime_Total":29.7703,"LatOffAvg_Align":25.8667282237,"LatOffAvg_Appr":2.7930722866,"LatOffAvg_FA":0.1473776096,"LatOffAvg_Total":6.2400970512,"AboveClosingVel_Align":0.0,"AboveClosingVel_Appr":81.1727,"AboveClosingVel_FA":0.0,"AboveClosingVel_Total":81.1727,"RollRms_Align":0.761720059,"RollRms_Appr":0.6317200121,"RollRms_FA":0.6614289388,"RollRms_Total":0.6665671535,"YawRms_Align":2.1091676943,"YawRms_Appr":0.2218940171,"YawRms_FA":0.5459452778,"YawRms_Total":0.9684145121,"PitchRms_Align":21.7508647763,"PitchRms_Appr":4.2109596442,"PitchRms_FA":1.1159712829,"PitchRms_Total":9.8353447018,"Duration_Total":650.2694,"OutOfCone_Total":143.8968,"Fuel_Total":56.772,"THCErr_Align":0,"RHCErr_Align":2,"THCErr_Appr":7,"RHCErr_Appr":5,"THCErr_FA":3,"RHCErr_FA":15,"THCErr_Total":10,"RHCErr_Total":22,"THCPSD_Align":0.0414331578,"RHCPSD_Align":0.0070044525,"THCPSD_Appr":0.0604761315,"RHCPSD_Appr":0.0035562332,"THCPSD_FA":0.0208756968,"RHCPSD_FA":0.0037848789,"THCPSD_Total":0.0425540501,"RHCPSD_Total":0.0042884687,"DutyCycle_Align":0.2661996497,"DutyCycle_Appr":0.1844783715,"DutyCycle_FA":0.3031578947,"DutyCycle_Total":0.2356935015,"Aggressiveness_Align":0.3872090861,"Aggressiveness_Appr":0.4118400293,"Aggressiveness_FA":0.4582077092,"Aggressiveness_Total":0.4439968829,"Workload_Align":0.1030749231,"Workload_Appr":0.0759755779,"Workload_FA":0.1389092845,"Workload_Total":0.10464718}
{"Flight ID":"3f4cf0fd484bdcce81c1c6eef4eecba7f8a142f84912839ec09acde446de22cf","Date":2024,"Scenario":"C003","Manually modified Phases":"Yes","Start_Align":29.7066,"Duration_Align":85.7245,"Start_Appr":115.4311,"Duration_Appr":331.1801,"Start_FA":446.6112,"Duration_FA":165.4849,"Time_Dock":612.0961,"OutOfCone_Align":59.6934,"OutOfCone_Appr":0.0,"OutOfCone_FA":0.0,"Fuel_Align":12.854,"Fuel_Appr":15.458,"Fuel_FA":8.66,"LatOffsetAtStart_Align":30.4518795643,"LatOffsetAtStart_Appr":1.5575686181,"LatOffsetAtStart_FA":0.515,"LatOffsetAt_Dock":0.057280014,"NoVisTime_Align":0.0,"NoVisTime_Appr":0.0,"NoVisTime_FA":0.0,"NoVisTime_Total":0.0,"LatOffAvg_Align":20.4137847416,"LatOffAvg_Appr":0.5518112654,"LatOffAvg_FA":0.1901005979,"LatOffAvg_Total":3.3840292055,"AboveClosingVel_Align":0.0,"AboveClosingVel_Appr":0.0,"AboveClosingVel_FA":6.4034,"AboveClosingVel_Total":6.4034,"RollRms_Align":0.4367743041,"RollRms_Appr":0.6768868007,"RollRms_FA":0.7711927636,"RollRms_Total":0.6765294774,"YawRms_Align":2.1250518479,"YawRms_Appr":0.4678072385,"YawRms_FA":0.2084965064,"YawRms_Total":0.8965551814,"PitchRms_Align":17.6518070948,"PitchRms_Appr":0.998280325,"PitchRms_FA":0.6783167199,"PitchRms_Total":6.8373009953,"Duration_Total":582.3895,"OutOfCone_Total":59.6934,"Fuel_Total":36.972,"THCErr_Align":0,"RHCErr_Align":0,"THCErr_Appr":9,"RHCErr_Appr":10,"THCErr_FA":2,"RHCErr_FA":7,"THCErr_Total":11,"RHCErr_Total":17,"THCPSD_Align":0.073290394,"RHCPSD_Align":0.0098271592,"THCPSD_Appr":0.043220399,"RHCPSD_Appr":0.0010540897,"THCPSD_FA":0.0232481222,"RHCPSD_FA":0.0015264281,"THCPSD_Total":0.047272639,"RHCPSD_Total":0.0031969844,"DutyCycle_Align":0.2804878049,"DutyCycle_Appr":0.1922342457,"DutyCycle_FA":0.1979823455,"DutyCycle_Total":0.2069214131,"Aggressiveness_Align":0.2785216227,"Aggressiveness_Appr":0.4352626954,"Aggressiveness_FA":0.3836937121,"Aggressiveness_Total":0.4155844302,"Workload_Align":0.0781219186,"Workload_Appr":0.0836723959,"Workload_FA":0.0759645811,"Workload_Total":0.0859933176}
{"Flight ID":"41d6813ed58e6c5c47327cf868cb4b80877a4a8e0611e3aef169d226f79f5e23","Date":2024,"Scenario":"C003","Manually modified Phases":"No","Start_Align":13.8039,"Duration_Align":1.4725,"Start_Appr":15.2764,"Duration_Appr":373.7871,"Start_FA":389.0635,"Duration_FA":196.7613,"Time_Dock":585.8248,"OutOfCone_Align":1.4725,"OutOfCone_Appr":93.6778,"OutOfCone_FA":0.2068,"Fuel_Align":0.141,"Fuel_Appr":31.463,"Fuel_FA":12.51,"LatOffsetAtStart_Align":28.0990810526,"LatOffsetAtStart_Appr":28.3070445826,"LatOffsetAtStart_FA":0.3052359743,"LatOffsetAt_Dock":0.8847129478,"NoVisTime_Align":0.0,"NoVisTime_Appr":0.0,"NoVisTime_FA":0.2068,"NoVisTime_Total":0.2068,"LatOffAvg_Align":28.1895809407,"LatOffAvg_Appr":7.4284368495,"LatOffAvg_FA":0.4068736908,"LatOffAvg_Total":5.0845432373,"AboveClosingVel_Align":0.0,"AboveClosingVel_Appr":2.1096,"AboveClosingVel_FA":0.0,"AboveClosingVel_Total":2.1096,"RollRms_Align":0.1418575744,"RollRms_Appr":0.7829852112,"RollRms_FA":0.5410435281,"RollRms_Total":0.7086307417,"YawRms_Align":2.458,"YawRms_Appr":1.2662066249,"YawRms_FA":0.4878849568,"YawRms_Total":1.0717173001,"PitchRms_Align":23.3586443283,"PitchRms_Appr":10.0712132609,"PitchRms_FA":1.2445183625,"PitchRms_Total":8.2747881472,"Duration_Total":572.0209,"OutOfCone_Total":95.3571,"Fuel_Total":44.114,"THCErr_Align":0,"RHCErr_Align":0,"THCErr_Appr":3,"RHCErr_Appr":10,"THCErr_FA":8,"RHCErr_FA":5,"THCErr_Total":11,"RHCErr_Total":15,"THCPSD_Align":0.0,"RHCPSD_Align":0.0,"THCPSD_Appr":0.0527812963,"RHCPSD_Appr":0.0024865789,"THCPSD_FA":0.0628197135,"RHCPSD_FA":0.0029262232,"THCPSD_Total":0.0556206576,"RHCPSD_Total":0.0024661531,"DutyCycle_Align":0.1428571429,"DutyCycle_Appr":0.2248454188,"DutyCycle_FA":0.1846652268,"DutyCycle_Total":0.2105457227,"Aggressiveness_Align":0.0,"Aggressiveness_Appr":0.3082619998,"Aggressiveness_FA":0.4129634495,"Aggressiveness_Total":0.3531429874,"Workload_Align":0.0,"Workload_Appr":0.0693112984,"Workload_FA":0.0762599891,"Workload_Total":0.0743527455}
{"Flight ID":"4422abe32e5114881d5099b2f55889d71a724bd0850760ef2f0fa6577a04c781","Date":2024,"Scenario":"C003","Manually modified Phases":"No","Start_Align":75.7707,"Duration_Align":406.0955,"Start_Appr":481.8662,"Duration_Appr":578.7293,"Start_FA":1060.5955,"Duration_FA":231.8308,"Time_Dock":1292.4263,"OutOfCone_Align":82.5937,"OutOfCone_Appr":0.0,"OutOfCone_FA":0.0,"Fuel_Align":90.924,"Fuel_Appr":103.615,"Fuel_FA":46.208,"LatOffsetAtStart_Align":37.1742030042,"LatOffsetAtStart_Appr":8.4672047926,"LatOffsetAtStart_FA":0.1285029183,"LatOffsetAt_Dock":0.132196823,"NoVisTime_Align":117.0489,"NoVisTime_Appr":4.2356,"NoVisTime_FA":0.0,"NoVisTime_Total":121.2845,"LatOffAvg_Align":11.4600199881,"LatOffAvg_Appr":1.4093764566,"LatOffAvg_FA":0.3782401947,"LatOffAvg_Total":4.5793462571,"AboveClosingVel_Align":0.0,"AboveClosingVel_Appr":6.1945,"AboveClosingVel_FA":0.0,"AboveClosingVel_Total":6.1945,"RollRms_Align":16.9064842608,"RollRms_Appr":2.0859943161,"RollRms_FA":0.5996950764,"RollRms_Total":9.8929181306,"YawRms_Align":1.9998529227,"YawRms_Appr":0.7799697855,"YawRms_FA":0.6382721586,"YawRms_Total":1.3060940688,"PitchRms_Align":13.1688269316,"PitchRms_Appr":1.1749137763,"PitchRms_FA":1.5300101262,"PitchRms_Total":7.693246309,"Duration_Total":1216.6556,"OutOfCone_Total":82.5937,"Fuel_Total":240.747,"THCErr_Align":7,"RHCErr_Align":36,"THCErr_Appr":11,"RHCErr_Appr":41,"THCErr_FA":18,"RHCErr_FA":13,"THCErr_Total":36,"RHCErr_Total":90,"THCPSD_Align":0.1043207191,"RHCPSD_Align":0.1086175614,"THCPSD_Appr":0.0912658906,"RHCPSD_Appr":0.0378271164,"THCPSD_FA":0.0971358161,"RHCPSD_FA":0.0624353024,"THCPSD_Total":0.095594626,"RHCPSD_Total":0.0650040311,"DutyCycle_Align":0.1770458055,"DutyCycle_Appr":0.2953142027,"DutyCycle_FA":0.3610859729,"DutyCycle_Total":0.2680572315,"Aggressiveness_Align":0.5916556334,"Aggressiveness_Appr":0.6201300651,"Aggressiveness_FA":0.7067065588,"Aggressiveness_Total":0.651019621,"Workload_Align":0.1047501482,"Workload_Appr":0.1831332158,"Workload_FA":0.2551818253,"Workload_Total":0.1745105173}
