{"Flight ID":"027798240aa28d64dfa1acf2b2bca18c281503f23ec41bb053b15f4275825f6a","Date":2024,"Scenario":"C005FT","Manually modified Phases":"No","Start_Align":17.3777,"Duration_Align":89.8316,"Start_Appr":107.2093,"Duration_Appr":128.6672,"Start_FA":235.8765,"Duration_FA":65.6128,"Time_Dock":301.4893,"Duration_Total":284.1116,"OutOfCone_Align":0,"OutOfCone_Appr":0,"OutOfCone_FA":0,"OutOfCone_Total":0,"AboveClosingVel_Align":0,"AboveClosingVel_Appr":104.1483,"AboveClosingVel_FA":65.6128,"AboveClosingVel_Total":169.7611,"Fuel_Align":12.712,"Fuel_Appr":7.148,"Fuel_FA":2.063,"Fuel_Total":21.923,"LatOffsetAtStart_Align":4.5154194711,"LatOffsetAtStart_Appr":6.1801088178,"LatOffsetAtStart_FA":0.1707659217,"LatOffsetAt_Dock":0.5344389582,"NoVisTime_Align":0,"NoVisTime_Appr":0.0,"NoVisTime_FA":0,"NoVisTime_Total":0.0,"THCPSD_Align":0.0284056598,"THCErr_Align":0,"RHCPSD_Align":0.0176305983,"RHCErr_Align":1,"THCPSD_Appr":0.0525599065,"THCErr_Appr":1,"RHCPSD_Appr":0.0213078189,"RHCErr_Appr":0,"THCPSD_FA":0.0738655705,"THCErr_FA":5,"RHCPSD_FA":0.0,"RHCErr_FA":0,"THCPSD_Total":0.0556848632,"THCErr_Total":6,"RHCPSD_Total":0.0173587089,"RHCErr_Total":1,"LatOffAvg_Align":5.4026679468,"LatOffAvg_Appr":2.1678690528,"LatOffAvg_FA":0.1708938007,"LatOffAvg_Total":2.7297614407,"RollRms_Align":1.4169655128,"RollRms_Appr":1.7595794511,"RollRms_FA":0.6796744146,"RollRms_Total":1.4636114584,"YawRms_Align":4.1643566883,"YawRms_Appr":0.2626553992,"YawRms_FA":0.7245685812,"YawRms_Total":2.3752879114,"PitchRms_Align":4.5286854855,"PitchRms_Appr":2.8908578608,"PitchRms_FA":0.6836210831,"PitchRms_Total":3.221513178,"Aggressiveness_Align":0.3703384842,"Aggressiveness_Appr":0.4110162044,"Aggressiveness_FA":0.5887225549,"Aggressiveness_Total":0.5342209872,"DutyCycle_Align":0.1793721973,"DutyCycle_Appr":0.0957613815,"DutyCycle_FA":0.2760736196,"DutyCycle_Total":0.1632363378,"Workload_Align":0.0664284277,"Workload_Appr":0.0393594795,"Workload_FA":0.1625307667,"Workload_Total":0.0872042775,"THC_Align":10,"THC_Appr":13,"THC_FA":38,"THC_Total":61,"RHC_Align":14,"RHC_Appr":7,"RHC_FA":0,"RHC_Total":21,"CombJoy_Align":0,"CombJoy_Appr":0,"CombJoy_FA":0,"CombJoy_Total":0,"THCIndErr_Align":0,"THCIndErr_Appr":0,"THCIndErr_FA":1,"THCIndErr_Total":1,"RHCIndErr_Align":0,"RHCIndErr_Appr":0,"RHCIndErr_FA":0,"RHCIndErr_Total":0}
{"Flight ID":"0baf75cb27c31beb01cbcc46f73e0a22d196eda3aa461efc4baf417298736da9","Date":2024,"Scenario":"C005FT","Manually modified Phases":"No","Start_Align":43.6443,"Duration_Align":149.6499,"Start_Appr":193.2942,"Duration_Appr":140.761,"Start_FA":334.0552,"Duration_FA":71.4474,"Time_Dock":405.5026,"Duration_Total":361.8583,"OutOfCone_Align":0,"OutOfCone_Appr":0,"OutOfCone_FA":0,"OutOfCone_Total":0,"AboveClosingVel_Align":0,"AboveClosingVel_Appr":133.91,"AboveClosingVel_FA":71.4474,"AboveClosingVel_Total":205.3574,"Fuel_Align":7.24,"Fuel_Appr":4.178,"Fuel_FA":3.422,"Fuel_Total":14.84,"LatOffsetAtStart_Align":5.0651776869,"LatOffsetAtStart_Appr":3.7599155576,"LatOffsetAtStart_FA":1.5691966097,"LatOffsetAt_Dock":0.2234032229,"NoVisTime_Align":0,"NoVisTime_Appr":0.0,"NoVisTime_FA":0,"NoVisTime_Total":0.0,"THCPSD_Align":0.0481581858,"THCErr_Align":3,"RHCPSD_Align":0.0089742235,"RHCErr_Align":3,"THCPSD_Appr":0.0433609686,"THCErr_Appr":3,"RHCPSD_Appr":0.0008638743,"RHCErr_Appr":3,"THCPSD_FA":0.0657818821,"THCErr_FA":2,"RHCPSD_FA":0.0038913482,"RHCErr_FA":2,"THCPSD_Total":0.054307692,"THCErr_Total":8,"RHCPSD_Total":0.0051675531,"RHCErr_Total":8,"LatOffAvg_Align":5.2159641431,"LatOffAvg_Appr":3.4879686106,"LatOffAvg_FA":0.688032159,"LatOffAvg_Total":3.649305973,"RollRms_Align":0.9832545822,"RollRms_Appr":0.4692348366,"RollRms_FA":1.1086024065,"RollRms_Total":0.8533302968,"YawRms_Align":3.0133635748,"YawRms_Appr":2.1282836853,"YawRms_FA":1.6883219488,"YawRms_Total":2.4656566986,"PitchRms_Align":3.7917893413,"PitchRms_Appr":1.5444633997,"PitchRms_FA":1.5063970615,"PitchRms_Total":2.7057056727,"Aggressiveness_Align":0.3195703138,"Aggressiveness_Appr":0.2854138742,"Aggressiveness_FA":0.5331163315,"Aggressiveness_Total":0.4008931574,"DutyCycle_Align":0.1184387618,"DutyCycle_Appr":0.0729613734,"DutyCycle_FA":0.1802816901,"DutyCycle_Total":0.1124095715,"Workload_Align":0.0378495123,"Workload_Appr":0.0208241882,"Workload_FA":0.0961111133,"Workload_Total":0.045064228,"THC_Align":15,"THC_Appr":14,"THC_FA":25,"THC_Total":54,"RHC_Align":10,"RHC_Appr":5,"RHC_FA":2,"RHC_Total":17,"CombJoy_Align":1,"CombJoy_Appr":1,"CombJoy_FA":2,"CombJoy_Total":4,"THCIndErr_Align":0,"THCIndErr_Appr":0,"THCIndErr_FA":0,"THCIndErr_Total":0,"RHCIndErr_Align":0,"RHCIndErr_Appr":0,"RHCIndErr_FA":0,"RHCIndErr_Total":0}
{"Flight ID":"16d681609baa0d0f4b3f7fb515212069c4cc33872f1c624467b167a46c8e8692","Date":2024,"Scenario":"C005FT","Manually modified Phases":"No","Start_Align":19.3683,"Duration_Align":250.8134,"Start_Appr":270.1817,"Duration_Appr":207.8943,"Start_FA":478.076,"Duration_FA":93.0428,"Time_Dock":571.1188,"Duration_Total":551.7505,"OutOfCone_Align":0,"OutOfCone_Appr":0,"OutOfCone_FA":0,"OutOfCone_Total":0,"AboveClosingVel_Align":0,"AboveClosingVel_Appr":135.776,"AboveClosingVel_FA":93.0428,"AboveClosingVel_Total":228.8188,"Fuel_Align":6.829,"Fuel_Appr":8.697,"Fuel_FA":5.995,"Fuel_Total":21.521,"LatOffsetAtStart_Align":4.5526172692,"LatOffsetAtStart_Appr":5.8053062796,"LatOffsetAtStart_FA":0.5382573734,"LatOffsetAt_Dock":0.1246795893,"NoVisTime_Align":0,"NoVisTime_Appr":0.0,"NoVisTime_FA":0,"NoVisTime_Total":0.0,"THCPSD_Align":0.0348394127,"THCErr_Align":4,"RHCPSD_Align":0.0107890448,"RHCErr_Align":1,"THCPSD_Appr":0.0442485496,"THCErr_Appr":1,"RHCPSD_Appr":0.0106173037,"RHCErr_Appr":6,"THCPSD_FA":0.0672791947,"THCErr_FA":6,"RHCPSD_FA":0.0258555347,"RHCErr_FA":2,"THCPSD_Total":0.0450272223,"THCErr_Total":11,"RHCPSD_Total":0.0155556172,"RHCErr_Total":9,"LatOffAvg_Align":7.5851005867,"LatOffAvg_Appr":3.6695988487,"LatOffAvg_FA":0.3681084882,"LatOffAvg_Total":4.8944642789,"RollRms_Align":1.2541511405,"RollRms_Appr":0.5026823619,"RollRms_FA":0.618127158,"RollRms_Total":0.9352424651,"YawRms_Align":3.9755748333,"YawRms_Appr":2.2143521229,"YawRms_FA":1.7486753777,"YawRms_Total":3.0902141445,"PitchRms_Align":4.4682724413,"PitchRms_Appr":4.2024777405,"PitchRms_FA":0.6667934184,"PitchRms_Total":3.9765439702,"Aggressiveness_Align":0.2781107282,"Aggressiveness_Appr":0.3667260756,"Aggressiveness_FA":0.6359388537,"Aggressiveness_Total":0.412196425,"DutyCycle_Align":0.0589660743,"DutyCycle_Appr":0.0759493671,"DutyCycle_FA":0.1812227074,"DutyCycle_Total":0.0852001469,"Workload_Align":0.0163990979,"Workload_Appr":0.0278526133,"Workload_FA":0.1152465608,"Workload_Total":0.035119196,"THC_Align":27,"THC_Appr":15,"THC_FA":28,"THC_Total":70,"RHC_Align":3,"RHC_Appr":13,"RHC_FA":6,"RHC_Total":22,"CombJoy_Align":0,"CombJoy_Appr":0,"CombJoy_FA":1,"CombJoy_Total":1,"THCIndErr_Align":0,"THCIndErr_Appr":0,"THCIndErr_FA":0,"THCIndErr_Total":0,"RHCIndErr_Align":0,"RHCIndErr_Appr":1,"RHCIndErr_FA":0,"RHCIndErr_Total":1}
{"Flight ID":"279e0459ea433dde5e9c39c2537378910f6e887ad28d89012dbea32bdaf81320","Date":2024,"Scenario":"C005FT","Manually modified Phases":"No","Start_Align":45.1925,"Duration_Align":153.4757,"Start_Appr":198.6682,"Duration_Appr":242.4312,"Start_FA":441.0994,"Duration_FA":160.288,"Time_Dock":601.3874,"Duration_Total":556.1949,"OutOfCone_Align":0,"OutOfCone_Appr":0,"OutOfCone_FA":0,"OutOfCone_Total":0,"AboveClosingVel_Align":0,"AboveClosingVel_Appr":48.7597,"AboveClosingVel_FA":118.7289,"AboveClosingVel_Total":167.4886,"Fuel_Align":14.746,"Fuel_Appr":6.662,"Fuel_FA":4.078,"Fuel_Total":25.486,"LatOffsetAtStart_Align":5.1024443162,"LatOffsetAtStart_Appr":0.1403566885,"LatOffsetAtStart_FA":0.100284595,"LatOffsetAt_Dock":0.1030776406,"NoVisTime_Align":0,"NoVisTime_Appr":0.0,"NoVisTime_FA":0,"NoVisTime_Total":0.0,"THCPSD_Align":0.0406893753,"THCErr_Align":3,"RHCPSD_Align":0.0582128456,"RHCErr_Align":8,"THCPSD_Appr":0.0265174513,"THCErr_Appr":2,"RHCPSD_Appr":0.0121751223,"RHCErr_Appr":4,"THCPSD_FA":0.0178178618,"THCErr_FA":0,"RHCPSD_FA":0.011609265,"RHCErr_FA":0,"THCPSD_Total":0.0301397111,"THCErr_Total":5,"RHCPSD_Total":0.02129769,"RHCErr_Total":12,"LatOffAvg_Align":2.2837776867,"LatOffAvg_Appr":0.1278112871,"LatOffAvg_FA":0.136502877,"LatOffAvg_Total":0.7253882669,"RollRms_Align":1.1537049138,"RollRms_Appr":0.4321345895,"RollRms_FA":0.2522743581,"RollRms_Total":0.6835185105,"YawRms_Align":1.7735904149,"YawRms_Appr":0.1978262128,"YawRms_FA":0.2029202718,"YawRms_Total":0.9471845108,"PitchRms_Align":2.1790100911,"PitchRms_Appr":0.1272691652,"PitchRms_FA":0.1858579005,"PitchRms_Total":1.1521899982,"Aggressiveness_Align":0.6380562228,"Aggressiveness_Appr":0.6119638275,"Aggressiveness_FA":0.5635581109,"Aggressiveness_Total":0.6212508279,"DutyCycle_Align":0.2139037433,"DutyCycle_Appr":0.1504649197,"DutyCycle_FA":0.1219512195,"DutyCycle_Total":0.1594095941,"Workload_Align":0.1364826145,"Workload_Appr":0.0920790882,"Workload_FA":0.0687265989,"Workload_Total":0.0990333423,"THC_Align":19,"THC_Appr":49,"THC_FA":24,"THC_Total":92,"RHC_Align":37,"RHC_Appr":25,"RHC_FA":16,"RHC_Total":78,"CombJoy_Align":0,"CombJoy_Appr":0,"CombJoy_FA":0,"CombJoy_Total":0,"THCIndErr_Align":0,"THCIndErr_Appr":0,"THCIndErr_FA":0,"THCIndErr_Total":0,"RHCIndErr_Align":3,"RHCIndErr_Appr":2,"RHCIndErr_FA":0,"RHCIndErr_Total":5}
{"Flight ID":"27fc653c84d597c246e83d2fc8f7c709ea5403fb0fee4c75a06604c8dbb30715","Date":2024,"Scenario":"C005FT","Manually modified Phases":"No","Start_Align":42.9924,"Duration_Align":79.9008,"Start_Appr":122.8932,"Duration_Appr":183.9191,"Start_FA":306.8123,"Duration_FA":98.1117,"Time_Dock":404.924,"Duration_Total":361.9316,"OutOfCone_Align":0,"OutOfCone_Appr":0,"OutOfCone_FA":0,"OutOfCone_Total":0,"AboveClosingVel_Align":0,"AboveClosingVel_Appr":162.0566,"AboveClosingVel_FA":98.1117,"AboveClosingVel_Total":260.1683,"Fuel_Align":9.409,"Fuel_Appr":14.855,"Fuel_FA":1.65,"Fuel_Total":25.914,"LatOffsetAtStart_Align":5.0503902819,"LatOffsetAtStart_Appr":7.0739630335,"LatOffsetAtStart_FA":0.0938136451,"LatOffsetAt_Dock":0.0644049688,"NoVisTime_Align":0,"NoVisTime_Appr":0.0,"NoVisTime_FA":0,"NoVisTime_Total":0.0,"THCPSD_Align":0.0640078538,"THCErr_Align":2,"RHCPSD_Align":0.0536969448,"RHCErr_Align":4,"THCPSD_Appr":0.0513709192,"THCErr_Appr":1,"RHCPSD_Appr":0.0482709784,"RHCErr_Appr":3,"THCPSD_FA":0.0402057132,"THCErr_FA":5,"RHCPSD_FA":0.0002029461,"RHCErr_FA":0,"THCPSD_Total":0.0588198329,"THCErr_Total":8,"RHCPSD_Total":0.0421065469,"RHCErr_Total":7,"LatOffAvg_Align":6.8666326674,"LatOffAvg_Appr":3.4396060891,"LatOffAvg_FA":0.0884303118,"LatOffAvg_Total":3.2927467453,"RollRms_Align":1.5150418628,"RollRms_Appr":1.0804651569,"RollRms_FA":1.2046044541,"RollRms_Total":1.2222443481,"YawRms_Align":4.6220293465,"YawRms_Appr":0.4025293147,"YawRms_FA":0.3766299061,"YawRms_Total":2.2026992778,"PitchRms_Align":4.6755971167,"PitchRms_Appr":3.1180269965,"PitchRms_FA":0.6690518941,"PitchRms_Total":3.1469964424,"Aggressiveness_Align":0.442697069,"Aggressiveness_Appr":0.4907694502,"Aggressiveness_FA":0.5158632134,"Aggressiveness_Total":0.5630736226,"DutyCycle_Align":0.1769230769,"DutyCycle_Appr":0.1106145251,"DutyCycle_FA":0.1491596639,"DutyCycle_Total":0.1351504827,"Workload_Align":0.0783233276,"Workload_Appr":0.0542862297,"Workload_FA":0.0769459835,"Workload_Total":0.0760996719,"THC_Align":12,"THC_Appr":26,"THC_FA":31,"THC_Total":69,"RHC_Align":12,"RHC_Appr":14,"RHC_FA":1,"RHC_Total":27,"CombJoy_Align":1,"CombJoy_Appr":0,"CombJoy_FA":0,"CombJoy_Total":1,"THCIndErr_Align":0,"THCIndErr_Appr":0,"THCIndErr_FA":0,"THCIndErr_Total":0,"RHCIndErr_Align":2,"RHCIndErr_Appr":0,"RHCIndErr_FA":0,"RHCIndErr_Total":2}
{"Flight ID":"2b52af2199561c05da45e75c5c4ada334169395c1f82ecfe2ee47e88ff8fd122","Date":2024,"Scenario":"C005FT","Manually modified Phases":"No","Start_Align":50.0593,"Duration_Align":184.3624,"Start_Appr":234.4217,"Duration_Appr":218.7002,"Start_FA":453.1219,"Duration_FA":152.9525,"Time_Dock":606.0744,"Duration_Total":556.0151,"OutOfCone_Align":0,"OutOfCone_Appr":0,"OutOfCone_FA":0,"OutOfCone_Total":0,"AboveClosingVel_Align":0,"AboveClosingVel_Appr":150.1258,"AboveClosingVel_FA":17.4606,"AboveClosingVel_Total":167.5864,"Fuel_Align":20.349,"Fuel_Appr":7.836,"Fuel_FA":3.959,"Fuel_Total":32.144,"LatOffsetAtStart_Align":5.221283846,"LatOffsetAtStart_Appr":0.4659291792,"LatOffsetAtStart_FA":0.101414989,"LatOffsetAt_Dock":0.0873670418,"NoVisTime_Align":0,"NoVisTime_Appr":0.0,"NoVisTime_FA":0,"NoVisTime_Total":0.0,"THCPSD_Align":0.0896953751,"THCErr_Align":6,"RHCPSD_Align":0.0143464076,"RHCErr_Align":0,"THCPSD_Appr":0.045026848,"THCErr_Appr":10,"RHCPSD_Appr":0.0009690806,"RHCErr_Appr":0,"THCPSD_FA":0.0589966025,"THCErr_FA":7,"RHCPSD_FA":0.003102977,"RHCErr_FA":0,"THCPSD_Total":0.0655855711,"THCErr_Total":23,"RHCPSD_Total":0.0052541439,"RHCErr_Total":0,"LatOffAvg_Align":4.7695166706,"LatOffAvg_Appr":0.2039803793,"LatOffAvg_FA":0.1538700704,"LatOffAvg_Total":1.7076410655,"RollRms_Align":1.009354184,"RollRms_Appr":0.5608289111,"RollRms_FA":0.2156121641,"RollRms_Total":0.6892114712,"YawRms_Align":3.1842424893,"YawRms_Appr":0.4367594263,"YawRms_FA":0.3415229371,"YawRms_Total":1.8646650878,"PitchRms_Align":3.3145837693,"PitchRms_Appr":1.0043012367,"PitchRms_FA":0.0760633668,"PitchRms_Total":2.0123542931,"Aggressiveness_Align":0.4013487208,"Aggressiveness_Appr":0.4186750701,"Aggressiveness_FA":0.5277428594,"Aggressiveness_Total":0.4584088745,"DutyCycle_Align":0.1542669584,"DutyCycle_Appr":0.1285846438,"DutyCycle_FA":0.1748344371,"DutyCycle_Total":0.1494545455,"Workload_Align":0.0619148464,"Workload_Appr":0.0538351848,"Workload_FA":0.0922676258,"Workload_Total":0.06851129,"THC_Align":30,"THC_Appr":47,"THC_FA":50,"THC_Total":127,"RHC_Align":17,"RHC_Appr":6,"RHC_FA":4,"RHC_Total":27,"CombJoy_Align":7,"CombJoy_Appr":0,"CombJoy_FA":0,"CombJoy_Total":7,"THCIndErr_Align":1,"THCIndErr_Appr":0,"THCIndErr_FA":0,"THCIndErr_Total":1,"RHCIndErr_Align":0,"RHCIndErr_Appr":0,"RHCIndErr_FA":0,"RHCIndErr_Total":0}
{"Flight ID":"35877f5ce8b703493db5f47e759739e5009112da10ec806ea94bae645501413f","Date":2024,"Scenario":"C005FT","Manually modified Phases":"No","Start_Align":47.7264,"Duration_Align":148.4124,"Start_Appr":196.1388,"Duration_Appr":283.0297,"Start_FA":479.1685,"Duration_FA":146.5793,"Time_Dock":625.7478,"Duration_Total":578.0214,"OutOfCone_Align":0,"OutOfCone_Appr":0,"OutOfCone_FA":0,"OutOfCone_Total":0,"AboveClosingVel_Align":0,"AboveClosingVel_Appr":53.7382,"AboveClosingVel_FA":146.5793,"AboveClosingVel_Total":200.3175,"Fuel_Align":10.678,"Fuel_Appr":14.791,"Fuel_FA":6.779,"Fuel_Total":32.248,"LatOffsetAtStart_Align":5.1637437969,"LatOffsetAtStart_Appr":7.0828144124,"LatOffsetAtStart_FA":0.7963880963,"LatOffsetAt_Dock":0.0899444273,"NoVisTime_Align":0,"NoVisTime_Appr":0.0,"NoVisTime_FA":0,"NoVisTime_Total":0.0,"THCPSD_Align":0.0401785436,"THCErr_Align":1,"RHCPSD_Align":0.017940236,"RHCErr_Align":9,"THCPSD_Appr":0.021645828,"THCErr_Appr":5,"RHCPSD_Appr":0.0024112307,"RHCErr_Appr":7,"THCPSD_FA":0.0281383035,"THCErr_FA":12,"RHCPSD_FA":0.0089250643,"RHCErr_FA":3,"THCPSD_Total":0.0318325574,"THCErr_Total":18,"RHCPSD_Total":0.0075492854,"RHCErr_Total":19,"LatOffAvg_Align":7.4980070623,"LatOffAvg_Appr":2.7649280893,"LatOffAvg_FA":0.2638744969,"LatOffAvg_Total":3.3468418877,"RollRms_Align":1.4275354221,"RollRms_Appr":1.7253366089,"RollRms_FA":1.4138781941,"RollRms_Total":1.5773946529,"YawRms_Align":4.2273317166,"YawRms_Appr":0.9879533578,"YawRms_FA":0.6514208055,"YawRms_Total":2.2745906252,"PitchRms_Align":4.7692180295,"PitchRms_Appr":3.8332497738,"PitchRms_FA":0.564265654,"PitchRms_Total":3.6223239301,"Aggressiveness_Align":0.4008820957,"Aggressiveness_Appr":0.3745148858,"Aggressiveness_FA":0.5290851347,"Aggressiveness_Total":0.461068615,"DutyCycle_Align":0.2320441989,"DutyCycle_Appr":0.1903039074,"DutyCycle_FA":0.2619047619,"DutyCycle_Total":0.2184397163,"Workload_Align":0.0930223647,"Workload_Appr":0.0712716461,"Workload_FA":0.1385699162,"Workload_Total":0.1007156975,"THC_Align":18,"THC_Appr":40,"THC_FA":35,"THC_Total":93,"RHC_Align":30,"RHC_Appr":31,"RHC_FA":28,"RHC_Total":89,"CombJoy_Align":1,"CombJoy_Appr":0,"CombJoy_FA":0,"CombJoy_Total":1,"THCIndErr_Align":0,"THCIndErr_Appr":0,"THCIndErr_FA":0,"THCIndErr_Total":0,"RHCIndErr_Align":7,"RHCIndErr_Appr":0,"RHCIndErr_FA":0,"RHCIndErr_Total":7}
{"Flight ID":"3f69e8ba376d66200321c83e5081116c5aee103e7e0615e3cc95bea55c805ade","Date":2024,"Scenario":"C005FT","Manually modified Phases":"No","Start_Align":28.141,"Duration_Align":68.1925,"Start_Appr":96.3335,"Duration_Appr":164.1251,"Start_FA":260.4586,"Duration_FA":153.5946,"Time_Dock":414.0532,"Duration_Total":385.9122,"OutOfCone_Align":0,"OutOfCone_Appr":0,"OutOfCone_FA":0,"OutOfCone_Total":0,"AboveClosingVel_Align":0,"AboveClosingVel_Appr":127.2232,"AboveClosingVel_FA":12.0991,"AboveClosingVel_Total":139.3223,"Fuel_Align":8.091,"Fuel_Appr":17.802,"Fuel_FA":9.443,"Fuel_Total":35.336,"LatOffsetAtStart_Align":4.7247306802,"LatOffsetAtStart_Appr":8.8821696674,"LatOffsetAtStart_FA":0.3305041603,"LatOffsetAt_Dock":0.1061696755,"NoVisTime_Align":0,"NoVisTime_Appr":8.8017,"NoVisTime_FA":0,"NoVisTime_Total":8.8017,"THCPSD_Align":0.0222493094,"THCErr_Align":3,"RHCPSD_Align":0.0758824937,"RHCErr_Align":4,"THCPSD_Appr":0.0690739477,"THCErr_Appr":2,"RHCPSD_Appr":0.0371090184,"RHCErr_Appr":6,"THCPSD_FA":0.0403087392,"THCErr_FA":5,"RHCPSD_FA":0.0328212729,"RHCErr_FA":9,"THCPSD_Total":0.057831339,"THCErr_Total":10,"RHCPSD_Total":0.0464969134,"RHCErr_Total":19,"LatOffAvg_Align":6.6993508583,"LatOffAvg_Appr":3.6140064246,"LatOffAvg_FA":0.2370979992,"LatOffAvg_Total":2.8187240324,"RollRms_Align":0.6700011071,"RollRms_Appr":0.4768954118,"RollRms_FA":0.5442270608,"RollRms_Total":0.5421962587,"YawRms_Align":4.7589016151,"YawRms_Appr":0.6841940469,"YawRms_FA":0.7686865795,"YawRms_Total":2.1084156345,"PitchRms_Align":4.2588319544,"PitchRms_Appr":3.0757695051,"PitchRms_FA":0.2932474454,"PitchRms_Total":2.6967633602,"Aggressiveness_Align":0.643554682,"Aggressiveness_Appr":0.6028465895,"Aggressiveness_FA":0.6063120788,"Aggressiveness_Total":0.6345647049,"DutyCycle_Align":0.2012012012,"DutyCycle_Appr":0.1775,"DutyCycle_FA":0.1700133869,"DutyCycle_Total":0.1776595745,"Workload_Align":0.1294839751,"Workload_Appr":0.1070052696,"Workload_FA":0.10308117,"Workload_Total":0.1127364954,"THC_Align":8,"THC_Appr":44,"THC_FA":37,"THC_Total":89,"RHC_Align":22,"RHC_Appr":20,"RHC_FA":21,"RHC_Total":63,"CombJoy_Align":0,"CombJoy_Appr":0,"CombJoy_FA":0,"CombJoy_Total":0,"THCIndErr_Align":0,"THCIndErr_Appr":0,"THCIndErr_FA":0,"THCIndErr_Total":0,"RHCIndErr_Align":3,"RHCIndErr_Appr":5,"RHCIndErr_FA":3,"RHCIndErr_Total":11}
{"Flight ID":"429fdf6b3ea22faa81cfaefbf59871e1d01331e3a3f6ea93fb9158558ae75ee0","Date":2024,"Scenario":"C005FT","Manually modified Phases":"No","Start_Align":27.1819,"Duration_Align":3.0319,"Start_Appr":30.2138,"Duration_Appr":140.3317,"Start_FA":170.5455,"Duration_FA":96.854,"Time_Dock":267.3995,"Duration_Total":240.2176,"OutOfCone_Align":0,"OutOfCone_Appr":0,"OutOfCone_FA":0,"OutOfCone_Total":0,"AboveClosingVel_Align":0,"AboveClosingVel_Appr":71.4547,"AboveClosingVel_FA":61.2276,"AboveClosingVel_Total":132.6823,"Fuel_Align":0.328,"Fuel_Appr":11.096,"Fuel_FA":7.79,"Fuel_Total":19.214,"LatOffsetAtStart_Align":4.7043837003,"LatOffsetAtStart_Appr":4.7454264297,"LatOffsetAtStart_FA":0.2662930716,"LatOffsetAt_Dock":0.0790063289,"NoVisTime_Align":0,"NoVisTime_Appr":0.0,"NoVisTime_FA":0,"NoVisTime_Total":0.0,"THCPSD_Align":0.0,"THCErr_Align":0,"RHCPSD_Align":0.0,"RHCErr_Align":0,"THCPSD_Appr":0.0746016061,"THCErr_Appr":3,"RHCPSD_Appr":0.0107861181,"RHCErr_Appr":5,"THCPSD_FA":0.0761673119,"THCErr_FA":6,"RHCPSD_FA":0.0055527483,"RHCErr_FA":6,"THCPSD_Total":0.0848849038,"THCErr_Total":9,"RHCPSD_Total":0.0082671806,"RHCErr_Total":11,"LatOffAvg_Align":4.7267961696,"LatOffAvg_Appr":3.8174172546,"LatOffAvg_FA":0.1014856748,"LatOffAvg_Total":2.3306423961,"RollRms_Align":1.4266000841,"RollRms_Appr":0.7496832339,"RollRms_FA":0.3070753393,"RollRms_Total":0.6260717416,"YawRms_Align":5.993,"YawRms_Appr":1.7932199416,"YawRms_FA":0.1612324158,"YawRms_Total":1.5299590681,"PitchRms_Align":4.5038014092,"PitchRms_Appr":3.2597281065,"PitchRms_FA":0.5225094634,"PitchRms_Total":2.5638184369,"Aggressiveness_Align":0.0,"Aggressiveness_Appr":0.4098828107,"Aggressiveness_FA":0.5671128158,"Aggressiveness_Total":0.4998253042,"DutyCycle_Align":0.0666666667,"DutyCycle_Appr":0.1449067432,"DutyCycle_FA":0.2848232848,"DutyCycle_Total":0.1994970662,"Workload_Align":0.0,"Workload_Appr":0.0593947832,"Workload_FA":0.1615269351,"Workload_Total":0.0997136818,"THC_Align":1,"THC_Appr":13,"THC_FA":32,"THC_Total":46,"RHC_Align":0,"RHC_Appr":15,"RHC_FA":15,"RHC_Total":30,"CombJoy_Align":0,"CombJoy_Appr":4,"CombJoy_FA":2,"CombJoy_Total":6,"THCIndErr_Align":0,"THCIndErr_Appr":0,"THCIndErr_FA":0,"THCIndErr_Total":0,"RHCIndErr_Align":0,"RHCIndErr_Appr":0,"RHCIndErr_FA":1,"RHCIndErr_Total":1}
{"Flight ID":"44297f4bfa7832b74db3b78d85fec9e199af1a3429794d735b583adc42a6315e","Date":2024,"Scenario":"C005FT","Manually modified Phases":"No","Start_Align":11.5403,"Duration_Align":85.133,"Start_Appr":96.6733,"Duration_Appr":136.3277,"Start_FA":233.001,"Duration_FA":65.9633,"Time_Dock":298.9643,"Duration_Total":287.424,"OutOfCone_Align":0,"OutOfCone_Appr":0,"OutOfCone_FA":0,"OutOfCone_Total":0,"AboveClosingVel_Align":0,"AboveClosingVel_Appr":130.0728,"AboveClosingVel_FA":48.1846,"AboveClosingVel_Total":178.2574,"Fuel_Align":8.479,"Fuel_Appr":3.67,"Fuel_FA":7.433,"Fuel_Total":19.582,"LatOffsetAtStart_Align":4.4111390819,"LatOffsetAtStart_Appr":3.1993602485,"LatOffsetAtStart_FA":1.1933985085,"LatOffsetAt_Dock":0.1120089282,"NoVisTime_Align":0,"NoVisTime_Appr":0.0,"NoVisTime_FA":0,"NoVisTime_Total":0.0,"THCPSD_Align":0.0691516066,"THCErr_Align":2,"RHCPSD_Align":0.0203887758,"RHCErr_Align":2,"THCPSD_Appr":0.0249211201,"THCErr_Appr":4,"RHCPSD_Appr":0.0002275077,"RHCErr_Appr":2,"THCPSD_FA":0.0562046575,"THCErr_FA":4,"RHCPSD_FA":0.0164435296,"RHCErr_FA":0,"THCPSD_Total":0.0480443867,"THCErr_Total":10,"RHCPSD_Total":0.0093444648,"RHCErr_Total":4,"LatOffAvg_Align":4.0825451471,"LatOffAvg_Appr":2.4556856332,"LatOffAvg_FA":0.3713299251,"LatOffAvg_Total":2.4606292411,"RollRms_Align":1.3567847561,"RollRms_Appr":0.2056101129,"RollRms_FA":0.4265612716,"RollRms_Total":0.7795245704,"YawRms_Align":1.7699230772,"YawRms_Appr":0.6268333868,"YawRms_FA":0.2992142163,"YawRms_Total":1.0657830469,"PitchRms_Align":3.3193486185,"PitchRms_Appr":3.3097082485,"PitchRms_FA":2.0671767052,"PitchRms_Total":3.0728746821,"Aggressiveness_Align":0.4734501892,"Aggressiveness_Appr":0.273961298,"Aggressiveness_FA":0.5855678723,"Aggressiveness_Total":0.4450064107,"DutyCycle_Align":0.1777251185,"DutyCycle_Appr":0.0637037037,"DutyCycle_FA":0.2423312883,"DutyCycle_Total":0.1370344343,"Workload_Align":0.084143991,"Workload_Appr":0.0174523494,"Workload_FA":0.1419014169,"Workload_Total":0.0609812017,"THC_Align":11,"THC_Appr":13,"THC_FA":19,"THC_Total":43,"RHC_Align":13,"RHC_Appr":4,"RHC_FA":6,"RHC_Total":23,"CombJoy_Align":0,"CombJoy_Appr":0,"CombJoy_FA":1,"CombJoy_Total":1,"THCIndErr_Align":0,"THCIndErr_Appr":0,"THCIndErr_FA":0,"THCIndErr_Total":0,"RHCIndErr_Align":1,"RHCIndErr_Appr":0,"RHCIndErr_FA":0,"RHCIndErr_Total":1}
{"Flight ID":"45983dd806287ef3f781db6b862c44c4da62c90c3265b604e4fac040addc0033","Date":2024,"Scenario":"C005FT","Manually modified Phases":"No","Start_Align":77.6882,"Duration_Align":61.0903,"Start_Appr":138.7785,"Duration_Appr":137.6112,"Start_FA":276.3897,"Duration_FA":43.7662,"Time_Dock":320.1559,"Duration_Total":242.4677,"OutOfCone_Align":0,"OutOfCone_Appr":0,"OutOfCone_FA":0,"OutOfCone_Total":0,"AboveClosingVel_Align":0,"AboveClosingVel_Appr":109.6309,"AboveClosingVel_FA":43.7662,"AboveClosingVel_Total":153.3971,"Fuel_Align":6.57,"Fuel_Appr":10.866,"Fuel_FA":2.572,"Fuel_Total":20.008,"LatOffsetAtStart_Align":5.9822792479,"LatOffsetAtStart_Appr":5.6923072651,"LatOffsetAtStart_FA":0.2125582273,"LatOffsetAt_Dock":0.0795110055,"NoVisTime_Align":0,"NoVisTime_Appr":0.0,"NoVisTime_FA":0,"NoVisTime_Total":0.0,"THCPSD_Align":0.0271512756,"THCErr_Align":0,"RHCPSD_Align":0.0543711089,"RHCErr_Align":3,"THCPSD_Appr":0.0451626728,"THCErr_Appr":1,"RHCPSD_Appr":0.0312099928,"RHCErr_Appr":2,"THCPSD_FA":0.0432749489,"THCErr_FA":1,"RHCPSD_FA":0.0110150668,"RHCErr_FA":5,"THCPSD_Total":0.0499927114,"THCErr_Total":2,"RHCPSD_Total":0.037976203,"RHCErr_Total":10,"LatOffAvg_Align":6.381230596,"LatOffAvg_Appr":1.5131611097,"LatOffAvg_FA":0.1012887145,"LatOffAvg_Total":2.4893436593,"RollRms_Align":1.4022473374,"RollRms_Appr":1.1622075479,"RollRms_FA":0.7785721342,"RollRms_Total":1.1714321267,"YawRms_Align":2.9781946772,"YawRms_Appr":0.3051200834,"YawRms_FA":0.0913341386,"YawRms_Total":1.515283977,"PitchRms_Align":4.8548948733,"PitchRms_Appr":2.9850074238,"PitchRms_FA":0.3909605602,"PitchRms_Total":3.3224535261,"Aggressiveness_Align":0.4301952182,"Aggressiveness_Appr":0.4472130821,"Aggressiveness_FA":0.6183650471,"Aggressiveness_Total":0.5143416093,"DutyCycle_Align":0.1538461538,"DutyCycle_Appr":0.129657228,"DutyCycle_FA":0.2769953052,"DutyCycle_Total":0.1614539307,"Workload_Align":0.0661838797,"Workload_Appr":0.0579844086,"Workload_FA":0.1712842149,"Workload_Total":0.0830424745,"THC_Align":6,"THC_Appr":12,"THC_FA":14,"THC_Total":32,"RHC_Align":8,"RHC_Appr":11,"RHC_FA":8,"RHC_Total":27,"CombJoy_Align":0,"CombJoy_Appr":1,"CombJoy_FA":0,"CombJoy_Total":1,"THCIndErr_Align":0,"THCIndErr_Appr":0,"THCIndErr_FA":0,"THCIndErr_Total":0,"RHCIndErr_Align":1,"RHCIndErr_Appr":0,"RHCIndErr_FA":2,"RHCIndErr_Total":3}
{"Flight ID":"4f0eee7f146d4111d3067f1989b8bb3d890df00e5b5f13be65ac998b0e2c30a1","Date":2024,"Scenario":"C005FT","Manually modified Phases":"No","Start_Align":32.8827,"Duration_Align":3.2549,"Start_Appr":36.1376,"Duration_Appr":301.6883,"Start_FA":337.8259,"Duration_FA":159.5389,"Time_Dock":497.3648,"Duration_Total":464.4821,"OutOfCone_Align":0,"OutOfCone_Appr":0,"OutOfCone_FA":0,"OutOfCone_Total":0,"AboveClosingVel_Align":0,"AboveClosingVel_Appr":1.8663,"AboveClosingVel_FA":73.3128,"AboveClosingVel_Total":75.1791,"Fuel_Align":0.485,"Fuel_Appr":16.891,"Fuel_FA":6.683,"Fuel_Total":24.059,"LatOffsetAtStart_Align":4.824033582,"LatOffsetAtStart_Appr":4.8727094106,"LatOffsetAtStart_FA":0.0254558441,"LatOffsetAt_Dock":0.1176307783,"NoVisTime_Align":0,"NoVisTime_Appr":0.0,"NoVisTime_FA":0,"NoVisTime_Total":0.0,"THCPSD_Align":0.0,"THCErr_Align":0,"RHCPSD_Align":0.0066736703,"RHCErr_Align":0,"THCPSD_Appr":0.0440058677,"THCErr_Appr":2,"RHCPSD_Appr":0.019214532,"RHCErr_Appr":5,"THCPSD_FA":0.0340373876,"THCErr_FA":4,"RHCPSD_FA":0.0168768933,"RHCErr_FA":2,"THCPSD_Total":0.0394374074,"THCErr_Total":6,"RHCPSD_Total":0.0183245264,"RHCErr_Total":7,"LatOffAvg_Align":4.85011932,"LatOffAvg_Appr":0.6304283895,"LatOffAvg_FA":0.1517049167,"LatOffAvg_Total":0.4963245821,"RollRms_Align":1.4266250821,"RollRms_Appr":0.831581196,"RollRms_FA":1.3886229477,"RollRms_Total":1.0605745459,"YawRms_Align":5.9643528148,"YawRms_Appr":0.790388788,"YawRms_FA":0.2240876804,"YawRms_Total":0.8220284352,"PitchRms_Align":4.5037518804,"PitchRms_Appr":1.5267315194,"PitchRms_FA":0.3186906914,"PitchRms_Total":1.3016787063,"Aggressiveness_Align":0.1496490453,"Aggressiveness_Appr":0.5180501613,"Aggressiveness_FA":0.4706196247,"Aggressiveness_Total":0.5240645749,"DutyCycle_Align":0.1875,"DutyCycle_Appr":0.1179277437,"DutyCycle_FA":0.1254851229,"DutyCycle_Total":0.1205673759,"Workload_Align":0.028059196,"Workload_Appr":0.0610924866,"Workload_FA":0.0590557614,"Workload_Total":0.0631850906,"THC_Align":1,"THC_Appr":51,"THC_FA":30,"THC_Total":82,"RHC_Align":1,"RHC_Appr":18,"RHC_FA":10,"RHC_Total":29,"CombJoy_Align":1,"CombJoy_Appr":1,"CombJoy_FA":0,"CombJoy_Total":2,"THCIndErr_Align":0,"THCIndErr_Appr":0,"THCIndErr_FA":0,"THCIndErr_Total":0,"RHCIndErr_Align":0,"RHCIndErr_Appr":3,"RHCIndErr_FA":1,"RHCIndErr_Total":4}
{"Flight ID":"50e28ba57440bb60afa7a786d3831f04583d3bc7a79995c5e60a8972c2bfe1e9","Date":2024,"Scenario":"C005FT","Manually modified Phases":"No","Start_Align":40.8142,"Duration_Align":35.8692,"Start_Appr":76.6834,"Duration_Appr":150.2562,"Start_FA":226.9396,"Duration_FA":98.4895,"Time_Dock":325.4291,"Duration_Total":284.6149,"OutOfCone_Align":0,"OutOfCone_Appr":0,"OutOfCone_FA":0,"OutOfCone_Total":0,"AboveClosingVel_Align":0,"AboveClosingVel_Appr":118.0152,"AboveClosingVel_FA":98.4895,"AboveClosingVel_Total":216.5047,"Fuel_Align":3.669,"Fuel_Appr":4.119,"Fuel_FA":9.036,"Fuel_Total":16.824,"LatOffsetAtStart_Align":4.9999084992,"LatOffsetAtStart_Appr":5.6301431598,"LatOffsetAtStart_FA":1.8272186514,"LatOffsetAt_Dock":0.3589233902,"NoVisTime_Align":0,"NoVisTime_Appr":0.0,"NoVisTime_FA":0,"NoVisTime_Total":0.0,"THCPSD_Align":0.0348284258,"THCErr_Align":0,"RHCPSD_Align":0.0079698708,"RHCErr_Align":0,"THCPSD_Appr":0.0181752397,"THCErr_Appr":7,"RHCPSD_Appr":0.0078599844,"RHCErr_Appr":2,"THCPSD_FA":0.0269075218,"THCErr_FA":3,"RHCPSD_FA":0.0040922943,"RHCErr_FA":2,"THCPSD_Total":0.032420464,"THCErr_Total":10,"RHCPSD_Total":0.0070051503,"RHCErr_Total":4,"LatOffAvg_Align":5.3859295655,"LatOffAvg_Appr":4.0509839827,"LatOffAvg_FA":0.5356267339,"LatOffAvg_Total":2.9983004183,"RollRms_Align":1.4207973476,"RollRms_Appr":1.1288827878,"RollRms_FA":0.889499733,"RollRms_Total":1.0957902177,"YawRms_Align":3.2916211039,"YawRms_Appr":0.944902916,"YawRms_FA":0.4983436837,"YawRms_Total":1.3887658006,"PitchRms_Align":4.5719454377,"PitchRms_Appr":5.1174226899,"PitchRms_FA":2.5270093515,"PitchRms_Total":4.3168867829,"Aggressiveness_Align":0.4977471878,"Aggressiveness_Appr":0.4879699525,"Aggressiveness_FA":0.4525851775,"Aggressiveness_Total":0.5193078482,"DutyCycle_Align":0.5142857143,"DutyCycle_Appr":0.1625344353,"DutyCycle_FA":0.3041666667,"DutyCycle_Total":0.2556118755,"Workload_Align":0.255984268,"Workload_Appr":0.0793119207,"Workload_FA":0.1376613248,"Workload_Total":0.132741253,"THC_Align":9,"THC_Appr":36,"THC_FA":21,"THC_Total":66,"RHC_Align":9,"RHC_Appr":11,"RHC_FA":17,"RHC_Total":37,"CombJoy_Align":0,"CombJoy_Appr":4,"CombJoy_FA":5,"CombJoy_Total":9,"THCIndErr_Align":0,"THCIndErr_Appr":0,"THCIndErr_FA":0,"THCIndErr_Total":0,"RHCIndErr_Align":0,"RHCIndErr_Appr":1,"RHCIndErr_FA":0,"RHCIndErr_Total":1}
{"Flight ID":"6f2fdc90b3bcf7e46201d452bd1b9b71c869569dcbced9e34faa93b4909caa0b","Date":2024,"Scenario":"C005FT","Manually modified Phases":"No","Start_Align":18.8635,"Duration_Align":17.3618,"Start_Appr":36.2253,"Duration_Appr":182.4039,"Start_FA":218.6292,"Duration_FA":100.4023,"Time_Dock":319.0315,"Duration_Total":300.168,"OutOfCone_Align":0,"OutOfCone_Appr":0,"OutOfCone_FA":0,"OutOfCone_Total":0,"AboveClosingVel_Align":0,"AboveClosingVel_Appr":136.4303,"AboveClosingVel_FA":100.4023,"AboveClosingVel_Total":236.8326,"Fuel_Align":1.453,"Fuel_Appr":7.95,"Fuel_FA":6.561,"Fuel_Total":15.964,"LatOffsetAtStart_Align":4.5428287443,"LatOffsetAtStart_Appr":5.884767625,"LatOffsetAtStart_FA":1.2933510738,"LatOffsetAt_Dock":0.1794240787,"NoVisTime_Align":0,"NoVisTime_Appr":0.0,"NoVisTime_FA":0,"NoVisTime_Total":0.0,"THCPSD_Align":0.022229758,"THCErr_Align":2,"RHCPSD_Align":0.0017248855,"RHCErr_Align":0,"THCPSD_Appr":0.0368253317,"THCErr_Appr":2,"RHCPSD_Appr":0.0021457271,"RHCErr_Appr":0,"THCPSD_FA":0.0232205237,"THCErr_FA":5,"RHCPSD_FA":0.0029266143,"RHCErr_FA":2,"THCPSD_Total":0.0375549097,"THCErr_Total":9,"RHCPSD_Total":0.0028698563,"RHCErr_Total":2,"LatOffAvg_Align":5.1234929053,"LatOffAvg_Appr":3.4915757845,"LatOffAvg_FA":0.4176848104,"LatOffAvg_Total":2.5576813758,"RollRms_Align":1.4342669208,"RollRms_Appr":1.4286894871,"RollRms_FA":1.5277401953,"RollRms_Total":1.4629065854,"YawRms_Align":5.4050808428,"YawRms_Appr":1.5332327131,"YawRms_FA":0.4830464207,"YawRms_Total":1.7902558755,"PitchRms_Align":4.5227995859,"PitchRms_Appr":4.4902929481,"PitchRms_FA":1.9221978149,"PitchRms_Total":3.8298743716,"Aggressiveness_Align":0.3354272753,"Aggressiveness_Appr":0.4802205658,"Aggressiveness_FA":0.4401943149,"Aggressiveness_Total":0.4648026996,"DutyCycle_Align":0.1882352941,"DutyCycle_Appr":0.1803833145,"DutyCycle_FA":0.245398773,"DutyCycle_Total":0.2019164956,"Workload_Align":0.0631392518,"Workload_Appr":0.0866237774,"Workload_FA":0.1080231448,"Workload_Total":0.0938513322,"THC_Align":3,"THC_Appr":43,"THC_FA":22,"THC_Total":68,"RHC_Align":1,"RHC_Appr":14,"RHC_FA":11,"RHC_Total":26,"CombJoy_Align":0,"CombJoy_Appr":4,"CombJoy_FA":3,"CombJoy_Total":7,"THCIndErr_Align":0,"THCIndErr_Appr":0,"THCIndErr_FA":0,"THCIndErr_Total":0,"RHCIndErr_Align":0,"RHCIndErr_Appr":0,"RHCIndErr_FA":0,"RHCIndErr_Total":0}
{"Flight ID":"76f28d09ddf4dc9ce86a30ff179ac5b007f957c4e68318d4e0f3f5b03d477b4a","Date":2024,"Scenario":"C005FT","Manually modified Phases":"No","Start_Align":66.5721,"Duration_Align":74.2701,"Start_Appr":140.8422,"Duration_Appr":221.4915,"Start_FA":362.3337,"Duration_FA":156.2225,"Time_Dock":518.5562,"Duration_Total":451.9841,"OutOfCone_Align":0,"OutOfCone_Appr":0,"OutOfCone_FA":0,"OutOfCone_Total":0,"AboveClosingVel_Align":0,"AboveClosingVel_Appr":121.8345,"AboveClosingVel_FA":149.4776,"AboveClosingVel_Total":271.3121,"Fuel_Align":3.437,"Fuel_Appr":9.646,"Fuel_FA":7.142,"Fuel_Total":20.225,"LatOffsetAtStart_Align":5.650936648,"LatOffsetAtStart_Appr":4.8091730058,"LatOffsetAtStart_FA":0.3783080755,"LatOffsetAt_Dock":0.1120401714,"NoVisTime_Align":0,"NoVisTime_Appr":0.0,"NoVisTime_FA":0,"NoVisTime_Total":0.0,"THCPSD_Align":0.0378442567,"THCErr_Align":3,"RHCPSD_Align":0.0224021717,"RHCErr_Align":3,"THCPSD_Appr":0.0484166546,"THCErr_Appr":2,"RHCPSD_Appr":0.0247432014,"RHCErr_Appr":3,"THCPSD_FA":0.0534334253,"THCErr_FA":15,"RHCPSD_FA":0.0189101946,"RHCErr_FA":3,"THCPSD_Total":0.0492747038,"THCErr_Total":20,"RHCPSD_Total":0.0165882333,"RHCErr_Total":9,"LatOffAvg_Align":5.5242242232,"LatOffAvg_Appr":2.3271513526,"LatOffAvg_FA":0.2605886071,"LatOffAvg_Total":2.1371781601,"RollRms_Align":1.4295238384,"RollRms_Appr":1.7972934748,"RollRms_FA":0.4752679043,"RollRms_Total":1.4134955094,"YawRms_Align":2.7902387843,"YawRms_Appr":0.9648061286,"YawRms_FA":0.8646881681,"YawRms_Total":1.410964726,"PitchRms_Align":4.4618289186,"PitchRms_Appr":3.6600630973,"PitchRms_FA":0.6368295041,"PitchRms_Total":3.1584373859,"Aggressiveness_Align":0.6055010542,"Aggressiveness_Appr":0.5357469498,"Aggressiveness_FA":0.618458191,"Aggressiveness_Total":0.6133932721,"DutyCycle_Align":0.1717451524,"DutyCycle_Appr":0.1267345051,"DutyCycle_FA":0.2247043364,"DutyCycle_Total":0.1679527916,"Workload_Align":0.1039918708,"Workload_Appr":0.0678976245,"Workload_FA":0.1389702374,"Workload_Total":0.1030211124,"THC_Align":19,"THC_Appr":45,"THC_FA":57,"THC_Total":121,"RHC_Align":6,"RHC_Appr":9,"RHC_FA":14,"RHC_Total":29,"CombJoy_Align":0,"CombJoy_Appr":0,"CombJoy_FA":0,"CombJoy_Total":0,"THCIndErr_Align":0,"THCIndErr_Appr":0,"THCIndErr_FA":0,"THCIndErr_Total":0,"RHCIndErr_Align":0,"RHCIndErr_Appr":1,"RHCIndErr_FA":0,"RHCIndErr_Total":1}
{"Flight ID":"7bd862437a3e0fdc631d5615cb9ea9ffbf96bb2886cfdecff4b0a714652b727d","Date":2024,"Scenario":"C005FT","Manually modified Phases":"No","Start_Align":28.1987,"Duration_Align":74.0783,"Start_Appr":102.277,"Duration_Appr":175.9817,"Start_FA":278.2587,"Duration_FA":100.2537,"Time_Dock":378.5124,"Duration_Total":350.3137,"OutOfCone_Align":0,"OutOfCone_Appr":0,"OutOfCone_FA":0,"OutOfCone_Total":0,"AboveClosingVel_Align":0,"AboveClosingVel_Appr":113.9811,"AboveClosingVel_FA":100.2537,"AboveClosingVel_Total":214.2348,"Fuel_Align":6.962,"Fuel_Appr":14.817,"Fuel_FA":8.849,"Fuel_Total":30.628,"LatOffsetAtStart_Align":4.7264773352,"LatOffsetAtStart_Appr":6.552278535,"LatOffsetAtStart_FA":0.4900377536,"LatOffsetAt_Dock":0.2415988411,"NoVisTime_Align":0,"NoVisTime_Appr":0.0,"NoVisTime_FA":0,"NoVisTime_Total":0.0,"THCPSD_Align":0.0194735761,"THCErr_Align":1,"RHCPSD_Align":0.0566451861,"RHCErr_Align":3,"THCPSD_Appr":0.065613191,"THCErr_Appr":2,"RHCPSD_Appr":0.0194007678,"RHCErr_Appr":4,"THCPSD_FA":0.0869113569,"THCErr_FA":4,"RHCPSD_FA":0.008175935,"RHCErr_FA":7,"THCPSD_Total":0.0648540691,"THCErr_Total":7,"RHCPSD_Total":0.0227935556,"RHCErr_Total":14,"LatOffAvg_Align":5.5843353093,"LatOffAvg_Appr":2.283751902,"LatOffAvg_FA":0.2905814057,"LatOffAvg_Total":2.4150129821,"RollRms_Align":1.6795881915,"RollRms_Appr":1.5784235975,"RollRms_FA":0.1420940343,"RollRms_Total":1.361829277,"YawRms_Align":2.8025338681,"YawRms_Appr":1.8899124633,"YawRms_FA":1.0498259948,"YawRms_Total":1.9430359844,"PitchRms_Align":4.4728713793,"PitchRms_Appr":1.6072692558,"PitchRms_FA":0.9931375516,"PitchRms_Total":2.4143471656,"Aggressiveness_Align":0.3492293933,"Aggressiveness_Appr":0.5015682541,"Aggressiveness_FA":0.5847855763,"Aggressiveness_Total":0.5445744145,"DutyCycle_Align":0.1689373297,"DutyCycle_Appr":0.1362586605,"DutyCycle_FA":0.2489878543,"DutyCycle_Total":0.1742906775,"Workload_Align":0.0589978812,"Workload_Appr":0.0683430185,"Workload_FA":0.1456045058,"Workload_Total":0.0949142436,"THC_Align":4,"THC_Appr":32,"THC_FA":39,"THC_Total":75,"RHC_Align":11,"RHC_Appr":14,"RHC_FA":9,"RHC_Total":34,"CombJoy_Align":0,"CombJoy_Appr":0,"CombJoy_FA":0,"CombJoy_Total":0,"THCIndErr_Align":0,"THCIndErr_Appr":0,"THCIndErr_FA":2,"THCIndErr_Total":2,"RHCIndErr_Align":0,"RHCIndErr_Appr":0,"RHCIndErr_FA":0,"RHCIndErr_Total":0}
{"Flight ID":"835a2f8922ecd8bd375d450c2230c2b79682c352d2c2689264a4a32ddfff6da2","Date":2024,"Scenario":"C005FT","Manually modified Phases":"No","Start_Align":44.4635,"Duration_Align":144.198,"Start_Appr":188.6615,"Duration_Appr":272.635,"Start_FA":461.2965,"Duration_FA":175.7497,"Time_Dock":637.0462,"Duration_Total":592.5827,"OutOfCone_Align":0,"OutOfCone_Appr":0,"OutOfCone_FA":0,"OutOfCone_Total":0,"AboveClosingVel_Align":0,"AboveClosingVel_Appr":5.966,"AboveClosingVel_FA":8.6162,"AboveClosingVel_Total":14.5822,"Fuel_Align":11.827,"Fuel_Appr":8.982,"Fuel_FA":7.074,"Fuel_Total":27.883,"LatOffsetAtStart_Align":5.0858121279,"LatOffsetAtStart_Appr":0.0353411941,"LatOffsetAtStart_FA":0.232,"LatOffsetAt_Dock":0.1119732111,"NoVisTime_Align":0,"NoVisTime_Appr":0.0,"NoVisTime_FA":0,"NoVisTime_Total":0.0,"THCPSD_Align":0.0446585883,"THCErr_Align":0,"RHCPSD_Align":0.030017227,"RHCErr_Align":0,"THCPSD_Appr":0.0271237788,"THCErr_Appr":5,"RHCPSD_Appr":0.0114317404,"RHCErr_Appr":3,"THCPSD_FA":0.0139433114,"THCErr_FA":6,"RHCPSD_FA":0.0089520415,"RHCErr_FA":4,"THCPSD_Total":0.0326636266,"THCErr_Total":11,"RHCPSD_Total":0.0139003514,"RHCErr_Total":7,"LatOffAvg_Align":2.8560347378,"LatOffAvg_Appr":0.0890481041,"LatOffAvg_FA":0.1392781116,"LatOffAvg_Total":0.7767416521,"RollRms_Align":1.9791606418,"RollRms_Appr":0.7972815952,"RollRms_FA":0.8748487976,"RollRms_Total":1.213250388,"YawRms_Align":3.8603910625,"YawRms_Appr":0.2598188582,"YawRms_FA":0.3258316575,"YawRms_Total":1.9199600191,"PitchRms_Align":1.2842998481,"PitchRms_Appr":0.2222322246,"PitchRms_FA":0.2423806609,"PitchRms_Total":0.66424648,"Aggressiveness_Align":0.4370994174,"Aggressiveness_Appr":0.5005804851,"Aggressiveness_FA":0.4540703426,"Aggressiveness_Total":0.4905814383,"DutyCycle_Align":0.1552706553,"DutyCycle_Appr":0.1323308271,"DutyCycle_FA":0.1649122807,"DutyCycle_Total":0.1472116384,"Workload_Align":0.067868713,"Workload_Appr":0.0662422296,"Workload_FA":0.0748817758,"Workload_Total":0.0722192973,"THC_Align":19,"THC_Appr":41,"THC_FA":24,"THC_Total":84,"RHC_Align":13,"RHC_Appr":21,"RHC_FA":19,"RHC_Total":53,"CombJoy_Align":0,"CombJoy_Appr":0,"CombJoy_FA":0,"CombJoy_Total":0,"THCIndErr_Align":0,"THCIndErr_Appr":0,"THCIndErr_FA":0,"THCIndErr_Total":0,"RHCIndErr_Align":0,"RHCIndErr_Appr":1,"RHCIndErr_FA":0,"RHCIndErr_Total":1}
{"Flight ID":"866a6d94a0d5a393128569b30bcb62564f08df882cfc75755631876ab51fb53a","Date":2024,"Scenario":"C005FT","Manually modified Phases":"No","Start_Align":47.6425,"Duration_Align":116.2274,"Start_Appr":163.8699,"Duration_Appr":221.0881,"Start_FA":384.958,"Duration_FA":145.1581,"Time_Dock":530.1161,"Duration_Total":482.4736,"OutOfCone_Align":0,"OutOfCone_Appr":0,"OutOfCone_FA":0,"OutOfCone_Total":0,"AboveClosingVel_Align":0,"AboveClosingVel_Appr":113.9928,"AboveClosingVel_FA":145.1581,"AboveClosingVel_Total":259.1509,"Fuel_Align":13.068,"Fuel_Appr":7.715,"Fuel_FA":2.739,"Fuel_Total":23.522,"LatOffsetAtStart_Align":5.161940914,"LatOffsetAtStart_Appr":0.6999264247,"LatOffsetAtStart_FA":0.1857767477,"LatOffsetAt_Dock":0.0929569793,"NoVisTime_Align":0,"NoVisTime_Appr":0.0,"NoVisTime_FA":0,"NoVisTime_Total":0.0,"THCPSD_Align":0.054517869,"THCErr_Align":1,"RHCPSD_Align":0.037350645,"RHCErr_Align":0,"THCPSD_Appr":0.0568609517,"THCErr_Appr":11,"RHCPSD_Appr":0.0055426965,"RHCErr_Appr":0,"THCPSD_FA":0.0382574795,"THCErr_FA":11,"RHCPSD_FA":0.0,"RHCErr_FA":0,"THCPSD_Total":0.0571752276,"THCErr_Total":23,"RHCPSD_Total":0.01037209,"RHCErr_Total":0,"LatOffAvg_Align":4.0355045583,"LatOffAvg_Appr":0.354293542,"LatOffAvg_FA":0.1426370074,"LatOffAvg_Total":1.1795805449,"RollRms_Align":1.4045073255,"RollRms_Appr":1.0703706077,"RollRms_FA":0.4336561178,"RollRms_Total":1.0281684716,"YawRms_Align":1.3293803286,"YawRms_Appr":0.1065381714,"YawRms_FA":0.6982234599,"YawRms_Total":0.7607432109,"PitchRms_Align":2.6578018507,"PitchRms_Appr":0.7059209361,"PitchRms_FA":0.381686421,"PitchRms_Total":1.406321208,"Aggressiveness_Align":0.4394255569,"Aggressiveness_Appr":0.3975284166,"Aggressiveness_FA":0.4533268001,"Aggressiveness_Total":0.475157085,"DutyCycle_Align":0.0933098592,"DutyCycle_Appr":0.0882899628,"DutyCycle_FA":0.1426553672,"DutyCycle_Total":0.1054421769,"Workload_Align":0.0410027368,"Workload_Appr":0.0350977691,"Workload_FA":0.0646695011,"Workload_Total":0.0501015974,"THC_Align":10,"THC_Appr":42,"THC_FA":42,"THC_Total":94,"RHC_Align":10,"RHC_Appr":1,"RHC_FA":3,"RHC_Total":14,"CombJoy_Align":0,"CombJoy_Appr":0,"CombJoy_FA":0,"CombJoy_Total":0,"THCIndErr_Align":0,"THCIndErr_Appr":0,"THCIndErr_FA":0,"THCIndErr_Total":0,"RHCIndErr_Align":0,"RHCIndErr_Appr":0,"RHCIndErr_FA":0,"RHCIndErr_Total":0}
{"Flight ID":"889feca80878af11d07eb0e5453027793fe8cf78641bd47de2aaed3744098939","Date":2024,"Scenario":"C005FT","Manually modified Phases":"No","Start_Align":22.6856,"Duration_Align":74.6982,"Start_Appr":97.3838,"Duration_Appr":290.5841,"Start_FA":387.9679,"Duration_FA":172.9813,"Time_Dock":560.9492,"Duration_Total":538.2636,"OutOfCone_Align":0,"OutOfCone_Appr":0,"OutOfCone_FA":0,"OutOfCone_Total":0,"AboveClosingVel_Align":0,"AboveClosingVel_Appr":0.0,"AboveClosingVel_FA":0.0,"AboveClosingVel_Total":0.0,"Fuel_Align":5.359,"Fuel_Appr":12.153,"Fuel_FA":9.322,"Fuel_Total":26.834,"LatOffsetAtStart_Align":4.6159658794,"LatOffsetAtStart_Appr":5.1724288299,"LatOffsetAtStart_FA":0.2737078735,"LatOffsetAt_Dock":0.1054751155,"NoVisTime_Align":0,"NoVisTime_Appr":0.0,"NoVisTime_FA":0,"NoVisTime_Total":0.0,"THCPSD_Align":0.065887719,"THCErr_Align":5,"RHCPSD_Align":0.0267939147,"RHCErr_Align":0,"THCPSD_Appr":0.0456587839,"THCErr_Appr":5,"RHCPSD_Appr":0.0076018124,"RHCErr_Appr":0,"THCPSD_FA":0.0357125809,"THCErr_FA":11,"RHCPSD_FA":0.0122446297,"RHCErr_FA":12,"THCPSD_Total":0.0466438188,"THCErr_Total":21,"RHCPSD_Total":0.0105721941,"RHCErr_Total":12,"LatOffAvg_Align":5.6504405777,"LatOffAvg_Appr":2.2348417152,"LatOffAvg_FA":0.1793241452,"LatOffAvg_Total":2.048837752,"RollRms_Align":1.1797694363,"RollRms_Appr":0.5597508501,"RollRms_FA":0.7161779217,"RollRms_Total":0.725938629,"YawRms_Align":2.7548836941,"YawRms_Appr":0.4532109948,"YawRms_FA":0.145215177,"YawRms_Total":1.0818783465,"PitchRms_Align":4.6379741047,"PitchRms_Appr":3.1475084102,"PitchRms_FA":0.38674631,"PitchRms_Total":2.8956037099,"Aggressiveness_Align":0.5607258368,"Aggressiveness_Appr":0.5115495632,"Aggressiveness_FA":0.6531428181,"Aggressiveness_Total":0.6112678734,"DutyCycle_Align":0.2011019284,"DutyCycle_Appr":0.1414427157,"DutyCycle_FA":0.244047619,"DutyCycle_Total":0.1830340084,"Workload_Align":0.1127630471,"Workload_Appr":0.0723549594,"Workload_FA":0.1593979496,"Workload_Total":0.1118828091,"THC_Align":21,"THC_Appr":75,"THC_FA":58,"THC_Total":154,"RHC_Align":6,"RHC_Appr":8,"RHC_FA":32,"RHC_Total":46,"CombJoy_Align":0,"CombJoy_Appr":0,"CombJoy_FA":0,"CombJoy_Total":0,"THCIndErr_Align":0,"THCIndErr_Appr":2,"THCIndErr_FA":2,"THCIndErr_Total":4,"RHCIndErr_Align":0,"RHCIndErr_Appr":0,"RHCIndErr_FA":0,"RHCIndErr_Total":0}
{"Flight ID":"8bf8dfb053ff1d775811f47e5196209f7a8cab763d2cb3cd557888cbe03d0fac","Date":2024,"Scenario":"C005FT","Manually modified Phases":"No","Start_Align":22.9375,"Duration_Align":87.6594,"Start_Appr":110.5969,"Duration_Appr":317.5414,"Start_FA":428.1383,"Duration_FA":195.5066,"Time_Dock":623.6449,"Duration_Total":600.7074,"OutOfCone_Align":0,"OutOfCone_Appr":0,"OutOfCone_FA":0,"OutOfCone_Total":0,"AboveClosingVel_Align":0,"AboveClosingVel_Appr":0.0,"AboveClosingVel_FA":0.0,"AboveClosingVel_Total":0.0,"Fuel_Align":9.41,"Fuel_Appr":3.42,"Fuel_FA":1.377,"Fuel_Total":14.207,"LatOffsetAtStart_Align":4.6206510364,"LatOffsetAtStart_Appr":2.8920548058,"LatOffsetAtStart_FA":0.2372551369,"LatOffsetAt_Dock":0.1164302366,"NoVisTime_Align":0,"NoVisTime_Appr":0.0,"NoVisTime_FA":0,"NoVisTime_Total":0.0,"THCPSD_Align":0.0639385798,"THCErr_Align":2,"RHCPSD_Align":0.0497754204,"RHCErr_Align":4,"THCPSD_Appr":0.0131778108,"THCErr_Appr":1,"RHCPSD_Appr":0.0049144202,"RHCErr_Appr":0,"THCPSD_FA":0.0135052169,"THCErr_FA":10,"RHCPSD_FA":0.0038853068,"RHCErr_FA":0,"THCPSD_Total":0.018627958,"THCErr_Total":13,"RHCPSD_Total":0.0092659482,"RHCErr_Total":4,"LatOffAvg_Align":4.1984289144,"LatOffAvg_Appr":1.1504506848,"LatOffAvg_FA":0.1082770361,"LatOffAvg_Total":1.2586916548,"RollRms_Align":0.8604587048,"RollRms_Appr":0.5853677701,"RollRms_FA":0.5249032636,"RollRms_Total":0.6158088778,"YawRms_Align":1.8963430134,"YawRms_Appr":0.544929821,"YawRms_FA":0.3518730002,"YawRms_Total":0.8516449883,"PitchRms_Align":3.574276982,"PitchRms_Appr":1.828756118,"PitchRms_FA":0.2598074484,"PitchRms_Total":1.9137083517,"Aggressiveness_Align":0.6974295474,"Aggressiveness_Appr":0.3570826692,"Aggressiveness_FA":0.3204721336,"Aggressiveness_Total":0.448773055,"DutyCycle_Align":0.2599531616,"DutyCycle_Appr":0.0483028721,"DutyCycle_FA":0.0760295671,"DutyCycle_Total":0.0884377151,"Workload_Align":0.1812990158,"Workload_Appr":0.0172481185,"Workload_FA":0.0243653576,"Workload_Total":0.0396884636,"THC_Align":20,"THC_Appr":28,"THC_FA":30,"THC_Total":78,"RHC_Align":21,"RHC_Appr":6,"RHC_FA":4,"RHC_Total":31,"CombJoy_Align":0,"CombJoy_Appr":0,"CombJoy_FA":0,"CombJoy_Total":0,"THCIndErr_Align":0,"THCIndErr_Appr":0,"THCIndErr_FA":1,"THCIndErr_Total":1,"RHCIndErr_Align":3,"RHCIndErr_Appr":0,"RHCIndErr_FA":0,"RHCIndErr_Total":3}
{"Flight ID":"92f250824e5d74bb23db9459ff4f5835e3ddce1e8a1a6465e7e108879f63a4d9","Date":2024,"Scenario":"C005FT","Manually modified Phases":"No","Start_Align":41.2572,"Duration_Align":3.2302,"Start_Appr":44.4874,"Duration_Appr":146.5993,"Start_FA":191.0867,"Duration_FA":156.3658,"Time_Dock":347.4525,"Duration_Total":306.1953,"OutOfCone_Align":0,"OutOfCone_Appr":0,"OutOfCone_FA":0,"OutOfCone_Total":0,"AboveClosingVel_Align":0,"AboveClosingVel_Appr":136.5134,"AboveClosingVel_FA":133.427,"AboveClosingVel_Total":269.9404,"Fuel_Align":0.35,"Fuel_Appr":8.219,"Fuel_FA":3.21,"Fuel_Total":11.779,"LatOffsetAtStart_Align":5.0101674623,"LatOffsetAtStart_Appr":5.0608588204,"LatOffsetAtStart_FA":1.3509322707,"LatOffsetAt_Dock":0.2413731551,"NoVisTime_Align":0,"NoVisTime_Appr":7.649,"NoVisTime_FA":0,"NoVisTime_Total":7.649,"THCPSD_Align":0.0,"THCErr_Align":0,"RHCPSD_Align":0.0,"RHCErr_Align":0,"THCPSD_Appr":0.0327448225,"THCErr_Appr":4,"RHCPSD_Appr":0.0126084232,"RHCErr_Appr":0,"THCPSD_FA":0.0437131953,"THCErr_FA":6,"RHCPSD_FA":0.0000029173,"RHCErr_FA":0,"THCPSD_Total":0.0409375556,"THCErr_Total":10,"RHCPSD_Total":0.0066593124,"RHCErr_Total":0,"LatOffAvg_Align":5.0376494519,"LatOffAvg_Appr":3.0980233697,"LatOffAvg_FA":0.384555797,"LatOffAvg_Total":1.7322572378,"RollRms_Align":1.4266875753,"RollRms_Appr":1.793188157,"RollRms_FA":1.8301292441,"RollRms_Total":1.8087251388,"YawRms_Align":5.993,"YawRms_Appr":3.0908902353,"YawRms_FA":1.2639298779,"YawRms_Total":2.4013681481,"PitchRms_Align":4.5028763585,"PitchRms_Appr":1.8786386299,"PitchRms_FA":0.2605154528,"PitchRms_Total":1.391829756,"Aggressiveness_Align":0.0,"Aggressiveness_Appr":0.3222730515,"Aggressiveness_FA":0.4043573851,"Aggressiveness_Total":0.3840558603,"DutyCycle_Align":0.0625,"DutyCycle_Appr":0.1126373626,"DutyCycle_FA":0.102960103,"DutyCycle_Total":0.1058514135,"Workload_Align":0.0,"Workload_Appr":0.0362999866,"Workload_FA":0.041632678,"Workload_Total":0.0406528557,"THC_Align":1,"THC_Appr":13,"THC_FA":32,"THC_Total":46,"RHC_Align":0,"RHC_Appr":6,"RHC_FA":1,"RHC_Total":7,"CombJoy_Align":0,"CombJoy_Appr":0,"CombJoy_FA":0,"CombJoy_Total":0,"THCIndErr_Align":0,"THCIndErr_Appr":0,"THCIndErr_FA":0,"THCIndErr_Total":0,"RHCIndErr_Align":0,"RHCIndErr_Appr":0,"RHCIndErr_FA":0,"RHCIndErr_Total":0}
{"Flight ID":"9822fdd2e83a6b1b2ea2cd18995f14e1399f33be6cf1f51adcb0e2ada00f7c8e","Date":2024,"Scenario":"C005FT","Manually modified Phases":"No","Start_Align":55.1279,"Duration_Align":146.208,"Start_Appr":201.3359,"Duration_Appr":257.5081,"Start_FA":458.844,"Duration_FA":139.7944,"Time_Dock":598.6384,"Duration_Total":543.5105,"OutOfCone_Align":0,"OutOfCone_Appr":0,"OutOfCone_FA":0,"OutOfCone_Total":0,"AboveClosingVel_Align":0,"AboveClosingVel_Appr":81.8789,"AboveClosingVel_FA":139.5878,"AboveClosingVel_Total":221.4667,"Fuel_Align":8.552,"Fuel_Appr":6.835,"Fuel_FA":4.822,"Fuel_Total":20.209,"LatOffsetAtStart_Align":5.3489856982,"LatOffsetAtStart_Appr":1.0716809227,"LatOffsetAtStart_FA":0.1507846146,"LatOffsetAt_Dock":0.1816039647,"NoVisTime_Align":0,"NoVisTime_Appr":0.0,"NoVisTime_FA":0,"NoVisTime_Total":0.0,"THCPSD_Align":0.0603142253,"THCErr_Align":0,"RHCPSD_Align":0.0032953127,"RHCErr_Align":2,"THCPSD_Appr":0.0273413896,"THCErr_Appr":5,"RHCPSD_Appr":0.0042292901,"RHCErr_Appr":3,"THCPSD_FA":0.043945515,"THCErr_FA":5,"RHCPSD_FA":0.0030331164,"RHCErr_FA":1,"THCPSD_Total":0.0466649328,"THCErr_Total":10,"RHCPSD_Total":0.0070550532,"RHCErr_Total":6,"LatOffAvg_Align":4.1065358675,"LatOffAvg_Appr":0.8893602324,"LatOffAvg_FA":0.1717323008,"LatOffAvg_Total":1.5676864059,"RollRms_Align":1.318208313,"RollRms_Appr":0.5938397138,"RollRms_FA":0.2657835669,"RollRms_Total":0.8072116248,"YawRms_Align":2.7567273711,"YawRms_Appr":0.5803461058,"YawRms_FA":0.4980132381,"YawRms_Total":1.50377491,"PitchRms_Align":3.1005215688,"PitchRms_Appr":0.7406777109,"PitchRms_FA":0.3841898102,"PitchRms_Total":1.6959063624,"Aggressiveness_Align":0.2924009343,"Aggressiveness_Appr":0.4118901364,"Aggressiveness_FA":0.4566619803,"Aggressiveness_Total":0.4127387051,"DutyCycle_Align":0.0957746479,"DutyCycle_Appr":0.113672496,"DutyCycle_FA":0.1397058824,"DutyCycle_Total":0.1151812689,"Workload_Align":0.0280045965,"Workload_Appr":0.0468205799,"Workload_FA":0.0637983649,"Workload_Total":0.0475397678,"THC_Align":12,"THC_Appr":41,"THC_FA":33,"THC_Total":86,"RHC_Align":5,"RHC_Appr":7,"RHC_FA":4,"RHC_Total":16,"CombJoy_Align":3,"CombJoy_Appr":0,"CombJoy_FA":0,"CombJoy_Total":3,"THCIndErr_Align":0,"THCIndErr_Appr":0,"THCIndErr_FA":0,"THCIndErr_Total":0,"RHCIndErr_Align":0,"RHCIndErr_Appr":0,"RHCIndErr_FA":0,"RHCIndErr_Total":0}
{"Flight ID":"9b5bda5cc5e9c546d9b7c416d4ac94a7f766176b1e76e38e105cfe3518a197be","Date":2024,"Scenario":"C005FT","Manually modified Phases":"No","Start_Align":12.2469,"Duration_Align":81.6339,"Start_Appr":93.8808,"Duration_Appr":245.161,"Start_FA":339.0418,"Duration_FA":251.6279,"Time_Dock":590.6697,"Duration_Total":578.4228,"OutOfCone_Align":0,"OutOfCone_Appr":0,"OutOfCone_FA":0,"OutOfCone_Total":0,"AboveClosingVel_Align":0,"AboveClosingVel_Appr":104.9133,"AboveClosingVel_FA":34.8566,"AboveClosingVel_Total":139.7699,"Fuel_Align":6.665,"Fuel_Appr":5.75,"Fuel_FA":5.39,"Fuel_Total":17.805,"LatOffsetAtStart_Align":4.4227576239,"LatOffsetAtStart_Appr":3.2148219235,"LatOffsetAtStart_FA":0.166964068,"LatOffsetAt_Dock":0.1089082182,"NoVisTime_Align":0,"NoVisTime_Appr":0.0,"NoVisTime_FA":0,"NoVisTime_Total":0.0,"THCPSD_Align":0.0421833778,"THCErr_Align":0,"RHCPSD_Align":0.0187941018,"RHCErr_Align":1,"THCPSD_Appr":0.0217348221,"THCErr_Appr":2,"RHCPSD_Appr":0.0065468948,"RHCErr_Appr":0,"THCPSD_FA":0.0199370882,"THCErr_FA":12,"RHCPSD_FA":0.0071565116,"RHCErr_FA":6,"THCPSD_Total":0.0271277103,"THCErr_Total":14,"RHCPSD_Total":0.0081205691,"RHCErr_Total":7,"LatOffAvg_Align":4.4271323267,"LatOffAvg_Appr":1.9311695538,"LatOffAvg_FA":0.1525907302,"LatOffAvg_Total":1.5090391198,"RollRms_Align":1.5542314523,"RollRms_Appr":0.8136339131,"RollRms_FA":0.622616179,"RollRms_Total":0.8887548309,"YawRms_Align":2.4436096413,"YawRms_Appr":1.8435525615,"YawRms_FA":0.2459236028,"YawRms_Total":1.5193902615,"PitchRms_Align":4.0116896665,"PitchRms_Appr":1.8958793079,"PitchRms_FA":0.3696161761,"PitchRms_Total":1.9626592621,"Aggressiveness_Align":0.3069090253,"Aggressiveness_Appr":0.3351851326,"Aggressiveness_FA":0.4569850473,"Aggressiveness_Total":0.3949709554,"DutyCycle_Align":0.0765432099,"DutyCycle_Appr":0.0739523418,"DutyCycle_FA":0.1328,"DutyCycle_Total":0.0995821727,"Workload_Align":0.0234918019,"Workload_Appr":0.0247877255,"Workload_FA":0.0606876143,"Workload_Total":0.0393320659,"THC_Align":7,"THC_Appr":24,"THC_FA":54,"THC_Total":85,"RHC_Align":4,"RHC_Appr":7,"RHC_FA":12,"RHC_Total":23,"CombJoy_Align":0,"CombJoy_Appr":0,"CombJoy_FA":0,"CombJoy_Total":0,"THCIndErr_Align":0,"THCIndErr_Appr":0,"THCIndErr_FA":0,"THCIndErr_Total":0,"RHCIndErr_Align":0,"RHCIndErr_Appr":0,"RHCIndErr_FA":0,"RHCIndErr_Total":0}
{"Flight ID":"9bbb9471aa60a0553da6076424fb97d5f0a6937003083bc321c696a87b241084","Date":2024,"Scenario":"C005FT","Manually modified Phases":"No","Start_Align":25.994,"Duration_Align":54.7557,"Start_Appr":80.7497,"Duration_Appr":86.7316,"Start_FA":167.4813,"Duration_FA":293.6153,"Time_Dock":461.0966,"Duration_Total":435.1026,"OutOfCone_Align":0,"OutOfCone_Appr":0,"OutOfCone_FA":0,"OutOfCone_Total":0,"AboveClosingVel_Align":0,"AboveClosingVel_Appr":80.6314,"AboveClosingVel_FA":83.1877,"AboveClosingVel_Total":163.8191,"Fuel_Align":4.694,"Fuel_Appr":6.568,"Fuel_FA":32.663,"Fuel_Total":43.925,"LatOffsetAtStart_Align":4.6810965596,"LatOffsetAtStart_Appr":3.9704553895,"LatOffsetAtStart_FA":1.9901457233,"LatOffsetAt_Dock":0.0682641927,"NoVisTime_Align":0,"NoVisTime_Appr":0.0,"NoVisTime_FA":0,"NoVisTime_Total":0.0,"THCPSD_Align":0.0719347825,"THCErr_Align":3,"RHCPSD_Align":0.0359219139,"RHCErr_Align":0,"THCPSD_Appr":0.085646814,"THCErr_Appr":4,"RHCPSD_Appr":0.011770194,"RHCErr_Appr":0,"THCPSD_FA":0.083033869,"THCErr_FA":22,"RHCPSD_FA":0.0464583553,"RHCErr_FA":8,"THCPSD_Total":0.088974033,"THCErr_Total":29,"RHCPSD_Total":0.0337279794,"RHCErr_Total":8,"LatOffAvg_Align":4.067856122,"LatOffAvg_Appr":2.9169039242,"LatOffAvg_FA":0.2966874784,"LatOffAvg_Total":1.2921257099,"RollRms_Align":1.3638889853,"RollRms_Appr":0.9336935383,"RollRms_FA":0.5217431248,"RollRms_Total":0.7687984341,"YawRms_Align":4.7087724816,"YawRms_Appr":3.2575434353,"YawRms_FA":1.1106995189,"YawRms_Total":2.3939415354,"PitchRms_Align":4.6567524532,"PitchRms_Appr":5.0409030841,"PitchRms_FA":1.9538241069,"PitchRms_Total":3.218978971,"Aggressiveness_Align":0.5453511547,"Aggressiveness_Appr":0.5007608358,"Aggressiveness_FA":0.7074423128,"Aggressiveness_Total":0.6668670707,"DutyCycle_Align":0.1529850746,"DutyCycle_Appr":0.12,"DutyCycle_FA":0.2290076336,"DutyCycle_Total":0.1968134958,"Workload_Align":0.0834305871,"Workload_Appr":0.0600913003,"Workload_FA":0.1620096899,"Workload_Total":0.1312484394,"THC_Align":16,"THC_Appr":19,"THC_FA":111,"THC_Total":146,"RHC_Align":4,"RHC_Appr":2,"RHC_FA":33,"RHC_Total":39,"CombJoy_Align":1,"CombJoy_Appr":1,"CombJoy_FA":12,"CombJoy_Total":14,"THCIndErr_Align":2,"THCIndErr_Appr":0,"THCIndErr_FA":3,"THCIndErr_Total":5,"RHCIndErr_Align":0,"RHCIndErr_Appr":0,"RHCIndErr_FA":1,"RHCIndErr_Total":1}
{"Flight ID":"9f7dcc63237aa44fe1e76eee7db775285634f2b8554beacd6a136f535df293e7","Date":2024,"Scenario":"C005FT","Manually modified Phases":"No","Start_Align":33.6434,"Duration_Align":11.8892,"Start_Appr":45.5326,"Duration_Appr":160.5498,"Start_FA":206.0824,"Duration_FA":56.2376,"Time_Dock":262.32,"Duration_Total":228.6766,"OutOfCone_Align":0,"OutOfCone_Appr":0,"OutOfCone_FA":0,"OutOfCone_Total":0,"AboveClosingVel_Align":0,"AboveClosingVel_Appr":93.4916,"AboveClosingVel_FA":56.2376,"AboveClosingVel_Total":149.7292,"Fuel_Align":1.157,"Fuel_Appr":13.391,"Fuel_FA":7.243,"Fuel_Total":21.791,"LatOffsetAtStart_Align":4.8402389404,"LatOffsetAtStart_Appr":5.7509586157,"LatOffsetAtStart_FA":1.2667995106,"LatOffsetAt_Dock":0.1249639948,"NoVisTime_Align":0,"NoVisTime_Appr":0.0,"NoVisTime_FA":0,"NoVisTime_Total":0.0,"THCPSD_Align":0.0308539412,"THCErr_Align":1,"RHCPSD_Align":0.0000093555,"RHCErr_Align":1,"THCPSD_Appr":0.0727913381,"THCErr_Appr":5,"RHCPSD_Appr":0.0204967931,"RHCErr_Appr":7,"THCPSD_FA":0.1022417613,"THCErr_FA":5,"RHCPSD_FA":0.0383192715,"RHCErr_FA":4,"THCPSD_Total":0.0847929252,"THCErr_Total":11,"RHCPSD_Total":0.0349703043,"RHCErr_Total":12,"LatOffAvg_Align":5.1618506578,"LatOffAvg_Appr":4.3116483782,"LatOffAvg_FA":0.3357635736,"LatOffAvg_Total":3.3771643672,"RollRms_Align":1.4235696209,"RollRms_Appr":1.5596619274,"RollRms_FA":1.2836574869,"RollRms_Total":1.4893598669,"YawRms_Align":5.993413822,"YawRms_Appr":2.6334021796,"YawRms_FA":0.4660495024,"YawRms_Total":2.606063877,"PitchRms_Align":4.5330385162,"PitchRms_Appr":4.9051747183,"PitchRms_FA":1.2574294744,"PitchRms_Total":4.2829480636,"Aggressiveness_Align":0.2947450508,"Aggressiveness_Appr":0.6931711251,"Aggressiveness_FA":0.8458519,"Aggressiveness_Total":0.7337201595,"DutyCycle_Align":0.0862068966,"DutyCycle_Appr":0.2176696543,"DutyCycle_FA":0.2810218978,"DutyCycle_Total":0.2246181491,"Workload_Align":0.0254090561,"Workload_Appr":0.1508823192,"Workload_FA":0.2377029062,"Workload_Total":0.1648068642,"THC_Align":2,"THC_Appr":44,"THC_FA":28,"THC_Total":74,"RHC_Align":1,"RHC_Appr":23,"RHC_FA":8,"RHC_Total":32,"CombJoy_Align":0,"CombJoy_Appr":3,"CombJoy_FA":4,"CombJoy_Total":7,"THCIndErr_Align":0,"THCIndErr_Appr":0,"THCIndErr_FA":2,"THCIndErr_Total":2,"RHCIndErr_Align":0,"RHCIndErr_Appr":4,"RHCIndErr_FA":1,"RHCIndErr_Total":5}
